[
    {
        "Name": "Arqil Hardware",
        "Address": "7V92+WFJ, Oluvil, Sri Lanka",
        "Phone": "+94 77 759 7276",
        "Map Address (URL)": "https://maps.google.com/?cid=8550238757941507853",
        "Website": "N/A",
        "Rating": 4.6,
        "User Ratings Total": 14,
        "Latitude": 7.2698477,
        "Longitude": 81.8511346,
        "Place ID": "ChIJk2OsDFsT5ToRDXfhZ9mMqHY"
    },
    {
        "Name": "Haleem Hardware",
        "Address": "6VV3+HP3, Addalaichenai, Sri Lanka",
        "Phone": "N/A",
        "Map Address (URL)": "https://maps.google.com/?cid=10019690646362768975",
        "Website": "N/A",
        "Rating": 3.5,
        "User Ratings Total": 2,
        "Latitude": 7.243881600000001,
        "Longitude": 81.8543124,
        "Place ID": "ChIJdX8xcSUT5ToRT8bBZ44XDYs"
    },
    {
        "Name": "MAC Enterprises",
        "Address": "106 Main St, Addalaichenai, Sri Lanka",
        "Phone": "+94 77 606 3660",
        "Map Address (URL)": "https://maps.google.com/?cid=5235594175400818803",
        "Website": "N/A",
        "Rating": 5,
        "User Ratings Total": 1,
        "Latitude": 7.250590900000001,
        "Longitude": 81.8542958,
        "Place ID": "ChIJrVb4PAAT5ToRc7jexCmRqEg"
    },
    {
        "Name": "Asif stores - (Hardware)",
        "Address": "No 180 Main street Maruthayadi, Addalaichenai, Sri Lanka",
        "Phone": "+94 77 028 7225",
        "Map Address (URL)": "https://maps.google.com/?cid=17397412232002930118",
        "Website": "N/A",
        "Rating": null,
        "User Ratings Total": null,
        "Latitude": 7.245484800000001,
        "Longitude": 81.8545714,
        "Place ID": "ChIJ601zt0wT5ToRxgWS4z8GcPE"
    },
    {
        "Name": "Farooj Stores",
        "Address": "ThaiThaikka Nager Jummah Mosque Road, Addalaichenai, Sri Lanka",
        "Phone": "+94 77 181 6227",
        "Map Address (URL)": "https://maps.google.com/?cid=14576998939310400567",
        "Website": "N/A",
        "Rating": 4.5,
        "User Ratings Total": 2,
        "Latitude": 7.2369888,
        "Longitude": 81.8526279,
        "Place ID": "ChIJAWKND3QT5ToRN6TXlE3nS8o"
    },
    {
        "Name": "Rila Electricals",
        "Address": "7V23+QMF, Addalaichenai, Sri Lanka",
        "Phone": "+94 77 777 4370",
        "Map Address (URL)": "https://maps.google.com/?cid=5563951677935322573",
        "Website": "N/A",
        "Rating": 5,
        "User Ratings Total": 3,
        "Latitude": 7.2519351,
        "Longitude": 81.8541736,
        "Place ID": "ChIJxZBQOpoT5ToRzQXGbpIgN00"
    },
    {
        "Name": "Hanan Hardware",
        "Address": "103A, 05 Main St, Addalaichenai 32350, Sri Lanka",
        "Phone": "+94 77 127 9272",
        "Map Address (URL)": "https://maps.google.com/?cid=13517977201235259524",
        "Website": "https://www.facebook.com/share/17SVC8rQq4/",
        "Rating": null,
        "User Ratings Total": null,
        "Latitude": 7.2504931,
        "Longitude": 81.8542509,
        "Place ID": "ChIJ8XZiEsgT5ToRhPB0qaSAmbs"
    },
    {
        "Name": "Aaraf Hardware",
        "Address": "356 Colombo - Ratnapura - Wellawaya - Batticaloa Rd, Addalaichenai, Sri Lanka",
        "Phone": "N/A",
        "Map Address (URL)": "https://maps.google.com/?cid=12870213690800134446",
        "Website": "N/A",
        "Rating": null,
        "User Ratings Total": null,
        "Latitude": 7.256572900000001,
        "Longitude": 81.8541789,
        "Place ID": "ChIJ5b9TPgAT5ToRLtmClykvnLI"
    },
    {
        "Name": "Aaraf Hardware",
        "Address": "136 Main St, Addalaichenai 09, Sri Lanka",
        "Phone": "N/A",
        "Map Address (URL)": "https://maps.google.com/?cid=6946755372250955169",
        "Website": "N/A",
        "Rating": null,
        "User Ratings Total": null,
        "Latitude": 7.251295600000001,
        "Longitude": 81.8544386,
        "Place ID": "ChIJG7cOeQAT5ToRof2NoDTVZ2A"
    },
    {
        "Name": "SLA RAHMAN STORES",
        "Address": "7RCX+42R, Colombo - Ratnapura - Wellawaya - Batticaloa Rd, Palamunai, Sri Lanka",
        "Phone": "+94 77 021 3469",
        "Map Address (URL)": "https://maps.google.com/?cid=15932672883818870910",
        "Website": "N/A",
        "Rating": 4.5,
        "User Ratings Total": 2,
        "Latitude": 7.2703716,
        "Longitude": 81.84752569999999,
        "Place ID": "ChIJnTjR7PET5ToRfriFqpI5HN0"
    },
    {
        "Name": "B M Ceramics (N.J.T.C)",
        "Address": "6VQ3+G45, Colombo - Batticaloa Hwy, Addalaichenai, Sri Lanka",
        "Phone": "+94 75 666 6633",
        "Map Address (URL)": "https://maps.google.com/?cid=7491052181672194192",
        "Website": "N/A",
        "Rating": 3.8,
        "User Ratings Total": 13,
        "Latitude": 7.238755499999999,
        "Longitude": 81.85286289999999,
        "Place ID": "ChIJ7cHTUCYT5ToRkHB8GkWQ9Wc"
    },
    {
        "Name": "ELENS Trade (Pvt) Ltd",
        "Address": "39 & 41 Main Street, අක්කරපත්තුව, Sri Lanka",
        "Phone": "+94 672 277 456",
        "Map Address (URL)": "https://maps.google.com/?cid=17825968032281537475",
        "Website": "N/A",
        "Rating": 4.4,
        "User Ratings Total": 27,
        "Latitude": 7.218986600000001,
        "Longitude": 81.8495681,
        "Place ID": "ChIJI5GpU8ES5ToRwyuctXqPYvc"
    },
    {
        "Name": "Khalique holding",
        "Address": "6VQ3+738, Addalaichenai, Sri Lanka",
        "Phone": "N/A",
        "Map Address (URL)": "https://maps.google.com/?cid=16066437805209276366",
        "Website": "N/A",
        "Rating": null,
        "User Ratings Total": null,
        "Latitude": 7.238170399999999,
        "Longitude": 81.85269079999999,
        "Place ID": "ChIJwUYEHwIT5ToRzs9naQ90994"
    },
    {
        "Name": "Amanulla's Home",
        "Address": "101B Main St, Addalaichenai 01, Sri Lanka",
        "Phone": "N/A",
        "Map Address (URL)": "https://maps.google.com/?cid=12749078940848534477",
        "Website": "N/A",
        "Rating": null,
        "User Ratings Total": null,
        "Latitude": 7.2546096,
        "Longitude": 81.85441589999999,
        "Place ID": "ChIJwV8WG5gT5ToRzbOwyr_T7bA"
    },
    {
        "Name": "ASNI Hardware and metal roofing",
        "Address": "Light house road, 7VV7+555, 5, Oluvil 32360, Sri Lanka",
        "Phone": "+94 76 109 7891",
        "Map Address (URL)": "https://maps.google.com/?cid=17474068551581961747",
        "Website": "N/A",
        "Rating": null,
        "User Ratings Total": null,
        "Latitude": 7.292889400000001,
        "Longitude": 81.8629744,
        "Place ID": "ChIJc9Fwfe8V5ToREw7eHcRcgPI"
    },
    {
        "Name": "Anfaths home",
        "Address": "101B, 01 Main St, Addalaichenai, Sri Lanka",
        "Phone": "N/A",
        "Map Address (URL)": "https://maps.google.com/?cid=10286318539301437656",
        "Website": "N/A",
        "Rating": null,
        "User Ratings Total": null,
        "Latitude": 7.2488893,
        "Longitude": 81.8579689,
        "Place ID": "ChIJjXyplJgT5ToR2MCTVTZYwI4"
    },
    {
        "Name": "SS marketing",
        "Address": "07 Bridge Road, Addalaichenai, Sri Lanka",
        "Phone": "N/A",
        "Map Address (URL)": "https://maps.google.com/?cid=2029256957433898646",
        "Website": "N/A",
        "Rating": null,
        "User Ratings Total": null,
        "Latitude": 7.250367,
        "Longitude": 81.85990989999999,
        "Place ID": "ChIJo8A09KAT5ToRlmbWiXNeKRw"
    },
    {
        "Name": "Abdullah emborium",
        "Address": "7V23+7V9, Beach Road, Addalaichenai, Sri Lanka",
        "Phone": "N/A",
        "Map Address (URL)": "https://maps.google.com/?cid=7910519271464996362",
        "Website": "N/A",
        "Rating": null,
        "User Ratings Total": null,
        "Latitude": 7.250666300000001,
        "Longitude": 81.8547193,
        "Place ID": "ChIJ3_XIndET5ToRCo6NnF3Px20"
    },
    {
        "Name": "Zahira Hardware Store",
        "Address": "237 Colombo - Batticaloa Hwy, Akkaraipattu, Sri Lanka",
        "Phone": "N/A",
        "Map Address (URL)": "https://maps.google.com/?cid=9814237191732089118",
        "Website": "N/A",
        "Rating": 4,
        "User Ratings Total": 1,
        "Latitude": 7.220062100000001,
        "Longitude": 81.8499397,
        "Place ID": "ChIJLcXN98MS5ToRHlGeUrosM4g"
    },
    {
        "Name": "INS Hardware",
        "Address": "05 Fiscal Rd, Akkaraipattu, Sri Lanka",
        "Phone": "N/A",
        "Map Address (URL)": "https://maps.google.com/?cid=7676260536125743640",
        "Website": "N/A",
        "Rating": 5,
        "User Ratings Total": 3,
        "Latitude": 7.225754800000001,
        "Longitude": 81.8451114,
        "Place ID": "ChIJIccNQ90S5ToRGOIfe0mOh2o"
    },
    {
        "Name": "Quality Hardware",
        "Address": "7RCX+J3G Junction, Palamunai, Sri Lanka",
        "Phone": "+94 75 141 4131",
        "Map Address (URL)": "https://maps.google.com/?cid=16840832463782921557",
        "Website": "N/A",
        "Rating": null,
        "User Ratings Total": null,
        "Latitude": 7.271568599999998,
        "Longitude": 81.8477058,
        "Place ID": "ChIJ33h5_74T5ToRVcWlNeantuk"
    },
    {
        "Name": "Aliyar Hardware",
        "Address": "Pattiyadipitty, Akkaraipattu 32400, Sri Lanka",
        "Phone": "+94 75 338 8597",
        "Map Address (URL)": "https://maps.google.com/?cid=5703501777183926628",
        "Website": "N/A",
        "Rating": 5,
        "User Ratings Total": 2,
        "Latitude": 7.223713600000001,
        "Longitude": 81.8307169,
        "Place ID": "ChIJSzzSjxkT5ToRZGnb3KXoJk8"
    },
    {
        "Name": "LULU HARDWARE & FITTINGS",
        "Address": "237 Colombo - Batticaloa Hwy, Akkaraipattu, Sri Lanka",
        "Phone": "+94 77 915 1313",
        "Map Address (URL)": "https://maps.google.com/?cid=2195399273077419226",
        "Website": "https://www.facebook.com/luluglassakp/",
        "Rating": 3.8,
        "User Ratings Total": 8,
        "Latitude": 7.220062100000001,
        "Longitude": 81.8499396,
        "Place ID": "ChIJY6ZtZdsS5ToR2izu0wGgdx4"
    },
    {
        "Name": "Ar & Son Hardware",
        "Address": "Addalaichenai, Sri Lanka",
        "Phone": "N/A",
        "Map Address (URL)": "https://maps.google.com/?cid=7215770276160717393",
        "Website": "N/A",
        "Rating": null,
        "User Ratings Total": null,
        "Latitude": 7.245377699999999,
        "Longitude": 81.85435149999999,
        "Place ID": "ChIJXburRSUT5ToRUcJh29WQI2Q"
    },
    {
        "Name": "Kalpa Hardware",
        "Address": "Weerakodiyana- Dummalasooriya Rd, Sri Lanka",
        "Phone": "+94 322 240 217",
        "Map Address (URL)": "https://maps.google.com/?cid=16451249808714071033",
        "Website": "N/A",
        "Rating": 4.5,
        "User Ratings Total": 10,
        "Latitude": 7.5411132,
        "Longitude": 79.9006445,
        "Place ID": "ChIJebg_RDTO4joR-Xud34mUTuQ"
    },
    {
        "Name": "එස් .එන්.එස් හාර්ඩ්වෙයාර්",
        "Address": "MR8M+M89 SnS hardware, Arachchikattuwa, Sri Lanka",
        "Phone": "+94 78 631 4648",
        "Map Address (URL)": "https://maps.google.com/?cid=6252579232901023200",
        "Website": "N/A",
        "Rating": null,
        "User Ratings Total": null,
        "Latitude": 7.666670900000001,
        "Longitude": 79.8333486,
        "Place ID": "ChIJjcd60usz_ToR4MUMS6-fxVY"
    },
    {
        "Name": "Ranmals Hardware",
        "Address": "JRG9+2WV, A3, Bangadeniya, Sri Lanka",
        "Phone": "+94 71 579 5058",
        "Map Address (URL)": "https://maps.google.com/?cid=4728360299480312880",
        "Website": "N/A",
        "Rating": 5,
        "User Ratings Total": 8,
        "Latitude": 7.6251089,
        "Longitude": 79.81978699999999,
        "Place ID": "ChIJAedzfyjL4joRMGyV9KOCnkE"
    },
    {
        "Name": "Tool box best Hardware",
        "Address": "HR73+993, Colombo Rd, Chilaw, Sri Lanka",
        "Phone": "N/A",
        "Map Address (URL)": "https://maps.google.com/?cid=8607129481498967201",
        "Website": "https://www.facebook.com/share/1BSXshjP3b/",
        "Rating": 5,
        "User Ratings Total": 3,
        "Latitude": 7.563384099999999,
        "Longitude": 79.8034175,
        "Place ID": "ChIJzTChMQDJ4joRobyJMKmqcnc"
    },
    {
        "Name": "Amarasena Hardware",
        "Address": "G5F6+8GM, Agalawatta, Sri Lanka",
        "Phone": "+94 76 165 5084",
        "Map Address (URL)": "https://maps.google.com/?cid=6044974121939571258",
        "Website": "N/A",
        "Rating": 5,
        "User Ratings Total": 1,
        "Latitude": 6.5233491,
        "Longitude": 80.1613091,
        "Place ID": "ChIJ89rbw7TN4zoROhKjru8P5FM"
    },
    {
        "Name": "Sudharma Hardware",
        "Address": "G5M8+752, B421, Agalawatta, Sri Lanka",
        "Phone": "+94 70 773 3332",
        "Map Address (URL)": "https://maps.google.com/?cid=16209695453069476330",
        "Website": "N/A",
        "Rating": 5,
        "User Ratings Total": 4,
        "Latitude": 6.5331323,
        "Longitude": 80.1653762,
        "Place ID": "ChIJz6iMV4XN4zoR6oF4xSFo9OA"
    },
    {
        "Name": "Janajaya Hardware",
        "Address": "Liyanagedara rd, Agalawatta - Matugama Rd, Matugama 12200, Sri Lanka",
        "Phone": "+94 71 865 9457",
        "Map Address (URL)": "https://maps.google.com/?cid=17934820592925760696",
        "Website": "N/A",
        "Rating": 5,
        "User Ratings Total": 2,
        "Latitude": 6.5398995,
        "Longitude": 80.15300529999999,
        "Place ID": "ChIJOwmS7_bN4zoRuFyzd05I5fg"
    },
    {
        "Name": "Buddika Hardware & Concrete works",
        "Address": "H53C+56W, Omaththa Rd, Agalawatta, Sri Lanka",
        "Phone": "+94 77 768 1716",
        "Map Address (URL)": "https://maps.google.com/?cid=5459931840600349421",
        "Website": "N/A",
        "Rating": 5,
        "User Ratings Total": 1,
        "Latitude": 6.552982999999999,
        "Longitude": 80.1705757,
        "Place ID": "ChIJPzKQHlDN4zoR7RrUwBSTxUs"
    },
    {
        "Name": "Jayathilaka Hardware",
        "Address": "G5R5+8FM, Nagoda - Kalawellawa - Bellapitiya Rd, Agalawatta, Sri Lanka",
        "Phone": "+94 71 187 8032",
        "Map Address (URL)": "https://maps.google.com/?cid=1590099097313899246",
        "Website": "N/A",
        "Rating": 3.3,
        "User Ratings Total": 3,
        "Latitude": 6.5408314,
        "Longitude": 80.1586811,
        "Place ID": "ChIJKQ02AUPM4zoR7nIQTbQqERY"
    },
    {
        "Name": "Jagath Hardware & Tile Stores",
        "Address": "Agalawatta - Matugama Rd, Matugama, Sri Lanka",
        "Phone": "+94 342 247 122",
        "Map Address (URL)": "https://maps.google.com/?cid=14178325642804513808",
        "Website": "N/A",
        "Rating": 4.7,
        "User Ratings Total": 19,
        "Latitude": 6.522069,
        "Longitude": 80.11822699999999,
        "Place ID": "ChIJ909sLCHN4zoREMwsWQ2Iw8Q"
    },
    {
        "Name": "Chanaka Hardware",
        "Address": "G5P2+54R, Agalawatta, Sri Lanka",
        "Phone": "N/A",
        "Map Address (URL)": "https://maps.google.com/?cid=3132861251823735152",
        "Website": "N/A",
        "Rating": 4,
        "User Ratings Total": 2,
        "Latitude": 6.5354962,
        "Longitude": 80.1502734,
        "Place ID": "ChIJo8rHcVrM4zoRcBGKvbUoeis"
    },
    {
        "Name": "Somarathna Hardware",
        "Address": "Pimbura, H595+W3P, Agalawatta, Sri Lanka",
        "Phone": "N/A",
        "Map Address (URL)": "https://maps.google.com/?cid=3754369919669965406",
        "Website": "N/A",
        "Rating": 5,
        "User Ratings Total": 2,
        "Latitude": 6.569844499999999,
        "Longitude": 80.157704,
        "Place ID": "ChIJidNwWlrL4zoRXhJX6YwzGjQ"
    },
    {
        "Name": "Dasatha Traders",
        "Address": "160A, Kalutara Road, Agalawatta - Matugama Rd, Matugama, Sri Lanka",
        "Phone": "+94 342 295 938",
        "Map Address (URL)": "https://maps.google.com/?cid=1693277375676150319",
        "Website": "N/A",
        "Rating": 4.4,
        "User Ratings Total": 5,
        "Latitude": 6.5226611,
        "Longitude": 80.1103346,
        "Place ID": "ChIJSavkQcfN4zoRL_JhQ826fxc"
    },
    {
        "Name": "Pimbura Hardware",
        "Address": "Pimbura, H5C5+74M, Agalawatta, Sri Lanka",
        "Phone": "N/A",
        "Map Address (URL)": "https://maps.google.com/?cid=7143409396608336951",
        "Website": "N/A",
        "Rating": 4.2,
        "User Ratings Total": 5,
        "Latitude": 6.570712299999999,
        "Longitude": 80.15778329999999,
        "Place ID": "ChIJ1U7e_8XL4zoRNwQHsv98ImM"
    },
    {
        "Name": "Agalawatta Hardware & Electrical",
        "Address": "Agalawatta, Sri Lanka",
        "Phone": "N/A",
        "Map Address (URL)": "https://maps.google.com/?cid=31160417187053733",
        "Website": "N/A",
        "Rating": null,
        "User Ratings Total": null,
        "Latitude": 6.5424288,
        "Longitude": 80.1580261,
        "Place ID": "ChIJV934tkPM4zoRpcB8_Tu0bgA"
    },
    {
        "Name": "Thuruliya Hardware",
        "Address": "G5R3+5HP, Agalawatta, Sri Lanka",
        "Phone": "+94 72 593 1310",
        "Map Address (URL)": "https://maps.google.com/?cid=3509610962852303568",
        "Website": "N/A",
        "Rating": 4,
        "User Ratings Total": 1,
        "Latitude": 6.5404737,
        "Longitude": 80.1539458,
        "Place ID": "ChIJaQj4cYrN4zoR0NKgdJOktDA"
    },
    {
        "Name": "Tool Shop",
        "Address": "G5Q3+X62, Agalawatta, Sri Lanka",
        "Phone": "+94 78 869 5027",
        "Map Address (URL)": "https://maps.google.com/?cid=7586989357825604341",
        "Website": "N/A",
        "Rating": 3,
        "User Ratings Total": 2,
        "Latitude": 6.5398824,
        "Longitude": 80.15302129999999,
        "Place ID": "ChIJFa6KjUfN4zoR9Trdk59mSmk"
    },
    {
        "Name": "Shakaya Hardware",
        "Address": "Matugama-Agalawatta Road, delgashndiya, G4C7+QFX, Matugama, Sri Lanka",
        "Phone": "+94 76 904 0227",
        "Map Address (URL)": "https://maps.google.com/?cid=11855365786723619519",
        "Website": "N/A",
        "Rating": 3,
        "User Ratings Total": 1,
        "Latitude": 6.5219833,
        "Longitude": 80.1137426,
        "Place ID": "ChIJH7fXPSfN4zoRvxL73164hqQ"
    },
    {
        "Name": "Gunawardhana Hardware",
        "Address": "185/1 Agalawatta - Matugama Rd, Matugama 12100, Sri Lanka",
        "Phone": "+94 77 643 1135",
        "Map Address (URL)": "https://maps.google.com/?cid=16215164226862684280",
        "Website": "N/A",
        "Rating": 4,
        "User Ratings Total": 1,
        "Latitude": 6.5225876,
        "Longitude": 80.11933959999999,
        "Place ID": "ChIJRXiBVa3N4zoReJjF5PPVB-E"
    },
    {
        "Name": "jaya madu hardware",
        "Address": "G4FG+M22, Road, Matugama, Sri Lanka",
        "Phone": "+94 342 240 090",
        "Map Address (URL)": "https://maps.google.com/?cid=5325259702226381496",
        "Website": "N/A",
        "Rating": 4.8,
        "User Ratings Total": 6,
        "Latitude": 6.5241364,
        "Longitude": 80.1250033,
        "Place ID": "ChIJ_-Kw4-HM4zoRuOrnF3wf50k"
    },
    {
        "Name": "Janaka Hardware Stores",
        "Address": "G4GH+PRG, Matugama, Sri Lanka",
        "Phone": "+94 342 240 425",
        "Map Address (URL)": "https://maps.google.com/?cid=6414820531316385702",
        "Website": "N/A",
        "Rating": 3.5,
        "User Ratings Total": 4,
        "Latitude": 6.5268089,
        "Longitude": 80.1295868,
        "Place ID": "ChIJr0HEcpvN4zoRpuf-OkkFBlk"
    },
    {
        "Name": "Sinethma hardware & agro",
        "Address": "No.25 Yatadola - Aluthgama Rd, Matugama, Sri Lanka",
        "Phone": "+94 76 632 0323",
        "Map Address (URL)": "https://maps.google.com/?cid=13752932895599940416",
        "Website": "N/A",
        "Rating": 5,
        "User Ratings Total": 2,
        "Latitude": 6.5175975,
        "Longitude": 80.0738985,
        "Place ID": "ChIJH25V0D8z4joRQNMENpo73L4"
    },
    {
        "Name": "SP Hardware",
        "Address": "Yatadola - Aluthgama Rd, Matugama 12100, Sri Lanka",
        "Phone": "+94 77 626 3723",
        "Map Address (URL)": "https://maps.google.com/?cid=15416414781145290022",
        "Website": "N/A",
        "Rating": 3,
        "User Ratings Total": 2,
        "Latitude": 6.515543999999999,
        "Longitude": 80.1176586,
        "Place ID": "ChIJc2y0yBEv4joRJhU_VJAb8tU"
    },
    {
        "Name": "Kalmira Hardware",
        "Address": "Aluthgama - Mathugama Rd, Sri Lanka",
        "Phone": "+94 77 792 9968",
        "Map Address (URL)": "https://maps.google.com/?cid=15769703385820146810",
        "Website": "N/A",
        "Rating": 4.4,
        "User Ratings Total": 9,
        "Latitude": 6.45546,
        "Longitude": 80.098148,
        "Place ID": "ChIJTzpXZqIt4joReqwVja092do"
    },
    {
        "Name": "Sirijaya Trading & Nippon Paint CCM",
        "Address": "G39G+F6X, Matugama, Sri Lanka",
        "Phone": "+94 342 245 422",
        "Map Address (URL)": "https://maps.google.com/?cid=16523106518420835881",
        "Website": "N/A",
        "Rating": 4.3,
        "User Ratings Total": 63,
        "Latitude": 6.518746399999999,
        "Longitude": 80.07561869999999,
        "Place ID": "ChIJUUGgH94y4joRKU5q2NXdTeU"
    },
    {
        "Name": "Chanlo Hardware",
        "Address": "Agalawatta, Sri Lanka",
        "Phone": "N/A",
        "Map Address (URL)": "https://maps.google.com/?cid=3254341388109720298",
        "Website": "N/A",
        "Rating": null,
        "User Ratings Total": null,
        "Latitude": 6.542639899999999,
        "Longitude": 80.1584063,
        "Place ID": "ChIJiVnJy0PM4zoR6qohEEC-KS0"
    },
    {
        "Name": "Sayoma Hardware Stores",
        "Address": "C5QR+Q2V, B158, Meegahathenna, Sri Lanka",
        "Phone": "+94 77 891 1220",
        "Map Address (URL)": "https://maps.google.com/?cid=9135704691661937140",
        "Website": "N/A",
        "Rating": 3.9,
        "User Ratings Total": 8,
        "Latitude": 6.4394787,
        "Longitude": 80.1900458,
        "Place ID": "ChIJY4q-oX_R4zoR9BlhlwOLyH4"
    },
    {
        "Name": "GDS Fertilizer Shop",
        "Address": "G5CH+XX9, Tiruwanaketiya-Agalawatte Rd, Bellana, Sri Lanka",
        "Phone": "+94 77 022 6457",
        "Map Address (URL)": "https://maps.google.com/?cid=1700906723438779899",
        "Website": "N/A",
        "Rating": 5,
        "User Ratings Total": 3,
        "Latitude": 6.522401299999999,
        "Longitude": 80.1799939,
        "Place ID": "ChIJ9bc1CNPN4zoR-12kNqfVmhc"
    },
    {
        "Name": "Gajanayaka Hardware",
        "Address": "G54H+6PV, B544, Kithulgoda, Sri Lanka",
        "Phone": "N/A",
        "Map Address (URL)": "https://maps.google.com/?cid=5690052962633028365",
        "Website": "N/A",
        "Rating": 4,
        "User Ratings Total": 2,
        "Latitude": 6.5056243,
        "Longitude": 80.1793056,
        "Place ID": "ChIJCUXI4ZTN4zoRDZPmtgUh904"
    },
    {
        "Name": "LASANTHA AND BROTHERS",
        "Address": "Mathugama Road,puwakwaththa junction,koapitiya, Dharga Town 12090, Sri Lanka",
        "Phone": "+94 77 750 7065",
        "Map Address (URL)": "https://maps.google.com/?cid=11430005362443424467",
        "Website": "N/A",
        "Rating": 4.3,
        "User Ratings Total": 18,
        "Latitude": 6.4384532,
        "Longitude": 80.0394093,
        "Place ID": "ChIJd3k-cB8t4joR0xJAgVGJn54"
    },
    {
        "Name": "S & S Steel (pvt) Ltd",
        "Address": "Delgashandiya - Agalawatta-Mathugama, G4MP+528, Road, Agalawatta, Sri Lanka",
        "Phone": "+94 77 792 9211",
        "Map Address (URL)": "https://maps.google.com/?cid=10921113900870276787",
        "Website": "N/A",
        "Rating": 3,
        "User Ratings Total": 2,
        "Latitude": 6.532924599999999,
        "Longitude": 80.1350825,
        "Place ID": "ChIJveRDA9vN4zoRsxb09DqXj5c"
    },
    {
        "Name": "Sarathchandra Hardware",
        "Address": "G4C8+VX7, Nagoda - Mathugama - Kalawellawa - Bellapitiya Road, Matugama, Sri Lanka",
        "Phone": "+94 342 248 343",
        "Map Address (URL)": "https://maps.google.com/?cid=15979060880943026736",
        "Website": "N/A",
        "Rating": 4,
        "User Ratings Total": 2,
        "Latitude": 6.522168,
        "Longitude": 80.1174252,
        "Place ID": "ChIJ5TVH9CDN4zoRMBLz5DUHwd0"
    },
    {
        "Name": "Jayant Hardware",
        "Address": "Horana - Anguruwatota - Mathugama - Aluthgama Road, Sri Lanka",
        "Phone": "N/A",
        "Map Address (URL)": "https://maps.google.com/?cid=6550638930467870510",
        "Website": "N/A",
        "Rating": 3,
        "User Ratings Total": 2,
        "Latitude": 6.5568466,
        "Longitude": 80.10626,
        "Place ID": "ChIJyYMyTK7M4zoRLtdhhmaL6Fo"
    },
    {
        "Name": "Jayasinghe Hardware Stores",
        "Address": "C3X9+3X3, Aluthgama - Mathugama Rd, Beruwala, Sri Lanka",
        "Phone": "+94 71 114 0804",
        "Map Address (URL)": "https://maps.google.com/?cid=7648997094632499956",
        "Website": "N/A",
        "Rating": 4.3,
        "User Ratings Total": 3,
        "Latitude": 6.4476273,
        "Longitude": 80.0699241,
        "Place ID": "ChIJhVp6IRot4joR9KqQ2VSyJmo"
    },
    {
        "Name": "Ashfak Hardware",
        "Address": "C2R7+J89, B157, Dharga Town, Sri Lanka",
        "Phone": "+94 344 929 519",
        "Map Address (URL)": "https://maps.google.com/?cid=4986687750988031699",
        "Website": "N/A",
        "Rating": 4.2,
        "User Ratings Total": 13,
        "Latitude": 6.4415323,
        "Longitude": 80.0133439,
        "Place ID": "ChIJJ9bRltMt4joR0-ZuwxZGNEU"
    },
    {
        "Name": "Upeksha HW",
        "Address": "F2H7+V3C, Kiranthidiya Rd, Beruwala, Sri Lanka",
        "Phone": "+94 77 928 0864",
        "Map Address (URL)": "https://maps.google.com/?cid=18162874664089848374",
        "Website": "N/A",
        "Rating": 4.5,
        "User Ratings Total": 4,
        "Latitude": 6.479691400000001,
        "Longitude": 80.01265339999999,
        "Place ID": "ChIJLVXtxvoz4joRNooEpUZ-D_w"
    },
    {
        "Name": "ලියන ආරච්චි Colour Bank",
        "Address": "G4MP+9XG, Green Park 2, Matugama, Sri Lanka",
        "Phone": "N/A",
        "Map Address (URL)": "https://maps.google.com/?cid=5235003157046561652",
        "Website": "N/A",
        "Rating": null,
        "User Ratings Total": null,
        "Latitude": 6.533444599999999,
        "Longitude": 80.1374443,
        "Place ID": "ChIJF4404BvN4zoRdAvPlaJ3pkg"
    },
    {
        "Name": "Maitipe Hardware",
        "Address": "Keembiya Rd, Sri Lanka",
        "Phone": "N/A",
        "Map Address (URL)": "https://maps.google.com/?cid=15044575917136928697",
        "Website": "N/A",
        "Rating": 4.2,
        "User Ratings Total": 14,
        "Latitude": 6.1297821,
        "Longitude": 80.2199042,
        "Place ID": "ChIJyWtJXJJw4ToRud9XSRYSydA"
    },
    {
        "Name": "ELIYAS TRADING",
        "Address": "44VQ+WC7, Main Street, ගෝනාපිනුවල, Sri Lanka",
        "Phone": "+94 77 776 6772",
        "Map Address (URL)": "https://maps.google.com/?cid=1071115554998997790",
        "Website": "N/A",
        "Rating": 4.5,
        "User Ratings Total": 11,
        "Latitude": 6.1447867,
        "Longitude": 80.138532,
        "Place ID": "ChIJtWQbwYB34ToRHlMcGexd3Q4"
    },
    {
        "Name": "D G Hardware",
        "Address": "D G Hardware, Wanduramba - Kottawa Rd, Wanduramba, Sri Lanka",
        "Phone": "N/A",
        "Map Address (URL)": "https://maps.google.com/?cid=10496219767248493691",
        "Website": "N/A",
        "Rating": 5,
        "User Ratings Total": 1,
        "Latitude": 6.1282229,
        "Longitude": 80.2680378,
        "Place ID": "ChIJfyFuMwBx4ToRe5xHV0QQqpE"
    },
    {
        "Name": "Vijitha Hardware",
        "Address": "Wanduramba - Mapalagama Rd, Sri Lanka",
        "Phone": "+94 912 296 683",
        "Map Address (URL)": "https://maps.google.com/?cid=8844142592642241053",
        "Website": "N/A",
        "Rating": 4.4,
        "User Ratings Total": 23,
        "Latitude": 6.1472618,
        "Longitude": 80.2705684,
        "Place ID": "ChIJc6ggSAdw4ToRHdJXadS0vHo"
    },
    {
        "Name": "Jayantha Hardware",
        "Address": "185 Galle Rd, Hikkaduwa 80240, Sri Lanka",
        "Phone": "+94 77 833 6336",
        "Map Address (URL)": "https://maps.google.com/?cid=9986713224221209376",
        "Website": "N/A",
        "Rating": 4.8,
        "User Ratings Total": 12,
        "Latitude": 6.1410488,
        "Longitude": 80.099648,
        "Place ID": "ChIJxRo0HE534ToRILNm-8Pul4o"
    },
    {
        "Name": "Ambagahaduwa Hardware Stores",
        "Address": "65MG+7F3, Ethkandura, Sri Lanka",
        "Phone": "+94 77 386 2512",
        "Map Address (URL)": "https://maps.google.com/?cid=15463650960152521850",
        "Website": "N/A",
        "Rating": 5,
        "User Ratings Total": 2,
        "Latitude": 6.234258199999999,
        "Longitude": 80.1755156,
        "Place ID": "ChIJRymGcwB_4ToReuyESp7smdY"
    },
    {
        "Name": "S.K.G. Hardware",
        "Address": "54V9+5PC, Diddeliya, Sri Lanka",
        "Phone": "+94 77 057 4527",
        "Map Address (URL)": "https://maps.google.com/?cid=9279169854991449672",
        "Website": "N/A",
        "Rating": 5,
        "User Ratings Total": 3,
        "Latitude": 6.1929382,
        "Longitude": 80.1192808,
        "Place ID": "ChIJzwk7kZt54ToRSD5H6dE7xoA"
    },
    {
        "Name": "Shantha hardware",
        "Address": "Thanabaddegama Agaliya road, 656M+9PH, Divitura, Sri Lanka",
        "Phone": "N/A",
        "Map Address (URL)": "https://maps.google.com/?cid=8168003985891777477",
        "Website": "N/A",
        "Rating": 5,
        "User Ratings Total": 1,
        "Latitude": 6.2109263,
        "Longitude": 80.18435290000001,
        "Place ID": "ChIJkZSgaad54ToRxdsNZ1mUWnE"
    },
    {
        "Name": "Ananda Hardware",
        "Address": "Mahawella Road, Gonapinuwala 80230, Sri Lanka",
        "Phone": "+94 77 670 0576",
        "Map Address (URL)": "https://maps.google.com/?cid=5327485426523755819",
        "Website": "N/A",
        "Rating": 4.4,
        "User Ratings Total": 5,
        "Latitude": 6.1341747,
        "Longitude": 80.1638179,
        "Place ID": "ChIJ5Zhb8G934ToRK9UE6sQH70k"
    },
    {
        "Name": "Eliyas Hardware",
        "Address": "542R+JPP، Gulugaha Handiya، Sri Lanka",
        "Phone": "+94 912 275 830",
        "Map Address (URL)": "https://maps.google.com/?cid=6672233945953807280",
        "Website": "N/A",
        "Rating": 5,
        "User Ratings Total": 1,
        "Latitude": 6.151594299999999,
        "Longitude": 80.1418209,
        "Place ID": "ChIJbdOcnyF54ToRsCvhPmyJmFw"
    },
    {
        "Name": "TC Hardware",
        "Address": "462C+MGJ, Poddala 80130, Sri Lanka",
        "Phone": "+94 77 792 1606",
        "Map Address (URL)": "https://maps.google.com/?cid=8176828588130376721",
        "Website": "N/A",
        "Rating": 3.5,
        "User Ratings Total": 13,
        "Latitude": 6.1015104,
        "Longitude": 80.2211306,
        "Place ID": "ChIJhUBAPABx4ToRERzFOEfueXE"
    },
    {
        "Name": "Emerald Hardware",
        "Address": "28Q3+5RH, Bogahagoda Hiyare Rd, Angulugaha, Sri Lanka",
        "Phone": "+94 77 747 2461",
        "Map Address (URL)": "https://maps.google.com/?cid=1243411016299105",
        "Website": "N/A",
        "Rating": 4.7,
        "User Ratings Total": 6,
        "Latitude": 6.0379475,
        "Longitude": 80.30462179999999,
        "Place ID": "ChIJ8S1pdrxt4ToRYbLvL-BqBAA"
    },
    {
        "Name": "Gurusinghe Hardware",
        "Address": "55M4+785, Weniyarawela, Sri Lanka",
        "Phone": "+94 77 997 2542",
        "Map Address (URL)": "https://maps.google.com/?cid=16953377757884836749",
        "Website": "N/A",
        "Rating": 4.7,
        "User Ratings Total": 3,
        "Latitude": 6.1831399,
        "Longitude": 80.1558537,
        "Place ID": "ChIJ9XgYdqZ54ToRjeu7eT9_Rus"
    },
    {
        "Name": "Amarasiri Hardware And T.F.D.Agencies",
        "Address": "Kurundugahahetekma, Sri Lanka",
        "Phone": "N/A",
        "Map Address (URL)": "https://maps.google.com/?cid=7294174395743061430",
        "Website": "N/A",
        "Rating": 4.7,
        "User Ratings Total": 3,
        "Latitude": 6.2707019,
        "Longitude": 80.1443056,
        "Place ID": "ChIJw0mtt8F_4ToRtsUDfPccOmU"
    },
    {
        "Name": "Samarasinghe Stores",
        "Address": "66G8+6C4, Kahaduwa, Sri Lanka",
        "Phone": "+94 77 614 7728",
        "Map Address (URL)": "https://maps.google.com/?cid=562761139853204026",
        "Website": "N/A",
        "Rating": 4.3,
        "User Ratings Total": 4,
        "Latitude": 6.2255196,
        "Longitude": 80.21606299999999,
        "Place ID": "ChIJWbLir4574ToROhpYakZUzwc"
    },
    {
        "Name": "Mahesh Hardware",
        "Address": "Bogha Junction, 36VR+WFF, Narawla, Narawala, Sri Lanka",
        "Phone": "+94 77 305 0855",
        "Map Address (URL)": "https://maps.google.com/?cid=8277320976418543992",
        "Website": "N/A",
        "Rating": 4.7,
        "User Ratings Total": 3,
        "Latitude": 6.094814,
        "Longitude": 80.2411867,
        "Place ID": "ChIJXwfwcaVx4ToReBlRq5Lz3nI"
    },
    {
        "Name": "Jayantha Hardware",
        "Address": "52 Seenigama - Aluthwala Rd, Sri Lanka",
        "Phone": "+94 77 833 6336",
        "Map Address (URL)": "https://maps.google.com/?cid=13891290728045456573",
        "Website": "N/A",
        "Rating": 5,
        "User Ratings Total": 12,
        "Latitude": 6.1569129,
        "Longitude": 80.0987076,
        "Place ID": "ChIJ8xSiFtR54ToRvazTZFHHx8A"
    },
    {
        "Name": "Southern Hardware",
        "Address": "Kanneliya Rd, Udugama 80075, Sri Lanka",
        "Phone": "+94 77 844 1449",
        "Map Address (URL)": "https://maps.google.com/?cid=2406662421378728070",
        "Website": "N/A",
        "Rating": 4.9,
        "User Ratings Total": 7,
        "Latitude": 6.2475501,
        "Longitude": 80.3282598,
        "Place ID": "ChIJDQ-tEKdj4ToRhoCPoLguZiE"
    },
    {
        "Name": "Sri Luxmi Hardware",
        "Address": "VP4X+974, Thalawakale Road, Dayagama, Sri Lanka",
        "Phone": "N/A",
        "Map Address (URL)": "https://maps.google.com/?cid=2926581264595763418",
        "Website": "N/A",
        "Rating": 5,
        "User Ratings Total": 1,
        "Latitude": 6.8558876,
        "Longitude": 80.7481942,
        "Place ID": "ChIJ-xKwJkGG4zoR2kCLiidOnSg"
    },
    {
        "Name": "Sanjeewa Hardware Store",
        "Address": "X9QC+3RQ, Dharmarama Mawatha, Galle, Sri Lanka",
        "Phone": "+94 77 784 7587",
        "Map Address (URL)": "https://maps.google.com/?cid=10302069844688727941",
        "Website": "N/A",
        "Rating": 4.1,
        "User Ratings Total": 38,
        "Latitude": 5.9877062,
        "Longitude": 80.3721068,
        "Place ID": "ChIJWSKs-lNr4ToRhW_v5_BN-I4"
    },
    {
        "Name": "Singhe Hardware",
        "Address": "X8JR+F5R, Colombo - Galle - Hambantota - Wellawaya Hwy, Ahangama, Sri Lanka",
        "Phone": "+94 77 543 4189",
        "Map Address (URL)": "https://maps.google.com/?cid=2540992986356665614",
        "Website": "N/A",
        "Rating": 5,
        "User Ratings Total": 7,
        "Latitude": 5.981228499999999,
        "Longitude": 80.3403821,
        "Place ID": "ChIJ01eL3TQT4ToRDk2MiKhrQyM"
    },
    {
        "Name": "Indika Hardware",
        "Address": "X9H8+V55, Imaduwa Road, Ahangama, Sri Lanka",
        "Phone": "+94 77 495 6416",
        "Map Address (URL)": "https://maps.google.com/?cid=12856749578089107477",
        "Website": "N/A",
        "Rating": null,
        "User Ratings Total": null,
        "Latitude": 5.9796429,
        "Longitude": 80.3654972,
        "Place ID": "ChIJiaFpDFcT4ToRFZAnkJ9ZbLI"
    },
    {
        "Name": "Kapila stores and Hardware",
        "Address": "X9CV+9RC Midigama West, Ahangama, Sri Lanka",
        "Phone": "+94 412 251 987",
        "Map Address (URL)": "https://maps.google.com/?cid=398629168186447061",
        "Website": "N/A",
        "Rating": 5,
        "User Ratings Total": 1,
        "Latitude": 5.9709477,
        "Longitude": 80.394505,
        "Place ID": "ChIJl3Y_u2AV4ToR1dTczh03iAU"
    },
    {
        "Name": "Galappaththi hardware",
        "Address": "X8JR+CQG, Matara Rd, Ahangama, Sri Lanka",
        "Phone": "+94 77 793 4337",
        "Map Address (URL)": "https://maps.google.com/?cid=14480510531818053501",
        "Website": "N/A",
        "Rating": 3.8,
        "User Ratings Total": 5,
        "Latitude": 5.9810625,
        "Longitude": 80.3419531,
        "Place ID": "ChIJ8_6klpET4ToRfV9Rj5sb9cg"
    },
    {
        "Name": "INDUWARA SUPPLIERS",
        "Address": "Goviyapana, Matara Rd, Ahangama 80650, Sri Lanka",
        "Phone": "N/A",
        "Map Address (URL)": "https://maps.google.com/?cid=4713801129600207790",
        "Website": "N/A",
        "Rating": null,
        "User Ratings Total": null,
        "Latitude": 5.9656536,
        "Longitude": 80.37894709999999,
        "Place ID": "ChIJsyGUbd4V4ToRrsunDyfJakE"
    },
    {
        "Name": "Thushara Hardware",
        "Address": "298H+Q88, Malalgodapitiya, Sri Lanka",
        "Phone": "+94 912 286 361",
        "Map Address (URL)": "https://maps.google.com/?cid=5388676721048346934",
        "Website": "N/A",
        "Rating": 4.6,
        "User Ratings Total": 10,
        "Latitude": 6.0169172,
        "Longitude": 80.37832039999999,
        "Place ID": "ChIJgbZ2Czhr4ToRNuGAZ-1syEo"
    },
    {
        "Name": "Kaviranga tool",
        "Address": "X9F8+GP2, Dharmarama road, Ahangama, Sri Lanka",
        "Phone": "+94 77 403 7099",
        "Map Address (URL)": "https://maps.google.com/?cid=15341307082350788304",
        "Website": "N/A",
        "Rating": null,
        "User Ratings Total": null,
        "Latitude": 5.973715599999999,
        "Longitude": 80.36713499999999,
        "Place ID": "ChIJhfA1ZAAV4ToR0P6zeYJF59Q"
    },
    {
        "Name": "Wickrama Hardware",
        "Address": "28CP+PM6, Habaraduwa Dikkumbura Rd, Habaraduwa, Sri Lanka",
        "Phone": "N/A",
        "Map Address (URL)": "https://maps.google.com/?cid=9572422909826412520",
        "Website": "N/A",
        "Rating": 4,
        "User Ratings Total": 1,
        "Latitude": 6.0217788,
        "Longitude": 80.33662819999999,
        "Place ID": "ChIJX37VX_Zs4ToR6K8DbOsT2IQ"
    },
    {
        "Name": "Anura Hardware",
        "Address": "X9C7+X7G, Ahangama, Sri Lanka",
        "Phone": "N/A",
        "Map Address (URL)": "https://maps.google.com/?cid=5162714837563833913",
        "Website": "N/A",
        "Rating": null,
        "User Ratings Total": null,
        "Latitude": 5.9724943,
        "Longitude": 80.3632158,
        "Place ID": "ChIJXcnzCAAT4ToROX6hocqlpUc"
    },
    {
        "Name": "Jayathunga Hardware (Vithanage Suppliers)",
        "Address": "X9X6+XGJ, Ahangama Ampawila Road, Ahangama, Sri Lanka",
        "Phone": "+94 77 331 6327",
        "Map Address (URL)": "https://maps.google.com/?cid=8385754185412261252",
        "Website": "N/A",
        "Rating": 4,
        "User Ratings Total": 1,
        "Latitude": 5.999966,
        "Longitude": 80.36127669999999,
        "Place ID": "ChIJ0TGBBAVt4ToRhDU-gwAvYHQ"
    },
    {
        "Name": "Sanasuma",
        "Address": "27CQ+JRR, Meepe Hospital Rd, Habaraduwa, Sri Lanka",
        "Phone": "+94 70 214 0214",
        "Map Address (URL)": "https://maps.google.com/?cid=13567329723870474344",
        "Website": "N/A",
        "Rating": 4.8,
        "User Ratings Total": 10,
        "Latitude": 6.0216012,
        "Longitude": 80.2895266,
        "Place ID": "ChIJASNfvHdt4ToRaPDlRYDWSLw"
    },
    {
        "Name": "NEW ASIAN TRADING",
        "Address": "71 Galbokka Rd, Weligama, Sri Lanka",
        "Phone": "+94 77 311 7266",
        "Map Address (URL)": "https://maps.google.com/?cid=18256267766838406533",
        "Website": "N/A",
        "Rating": 4.8,
        "User Ratings Total": 17,
        "Latitude": 5.976325999999999,
        "Longitude": 80.4284661,
        "Place ID": "ChIJn5E6_KYV4ToRhS3R3s5KW_0"
    },
    {
        "Name": "Dilan hardware",
        "Address": "02, Station Road, Ahangama, East, Sri Lanka",
        "Phone": "+94 912 283 507",
        "Map Address (URL)": "https://maps.google.com/?cid=17246957311948526895",
        "Website": "N/A",
        "Rating": null,
        "User Ratings Total": null,
        "Latitude": 5.972775299999999,
        "Longitude": 80.3637598,
        "Place ID": "ChIJB7rokbwT4ToRL5UEA0yAWe8"
    },
    {
        "Name": "Anura Hardware",
        "Address": "3 Thotawattha Rd, Ahungalla, Sri Lanka",
        "Phone": "N/A",
        "Map Address (URL)": "https://maps.google.com/?cid=5996533353509949916",
        "Website": "N/A",
        "Rating": 3,
        "User Ratings Total": 1,
        "Latitude": 6.314260099999999,
        "Longitude": 80.03509389999999,
        "Place ID": "ChIJbXw4tHUq4joR3BG-Y1D3N1M"
    },
    {
        "Name": "Shakthi Hardwere",
        "Address": "828M+HM5, Galle Rd, Ahungalla, Sri Lanka",
        "Phone": "N/A",
        "Map Address (URL)": "https://maps.google.com/?cid=17430995242970555667",
        "Website": "N/A",
        "Rating": 4,
        "User Ratings Total": 4,
        "Latitude": 6.316394799999999,
        "Longitude": 80.0342373,
        "Place ID": "ChIJdyhQY3Qq4joRE6XI8tFV5_E"
    },
    {
        "Name": "Indunil Hardware & Stores kosgoda",
        "Address": "Galle Rd, Kosgoda, Sri Lanka",
        "Phone": "+94 77 424 6600",
        "Map Address (URL)": "https://maps.google.com/?cid=11033878945147459896",
        "Website": "N/A",
        "Rating": 4.6,
        "User Ratings Total": 9,
        "Latitude": 6.3340725,
        "Longitude": 80.0309372,
        "Place ID": "ChIJW73Pij8q4joROBktzHA2IJk"
    },
    {
        "Name": "Kosgoda Hardware Stores",
        "Address": "82HM+94F, Kosgoda, Sri Lanka",
        "Phone": "+94 913 909 847",
        "Map Address (URL)": "https://maps.google.com/?cid=14561631266067059569",
        "Website": "N/A",
        "Rating": 4.7,
        "User Ratings Total": 3,
        "Latitude": 6.3284378,
        "Longitude": 80.0328033,
        "Place ID": "ChIJ90Q-aWsq4joRcRMmVHxOFco"
    },
    {
        "Name": "ONE TO ONE HARDWARE",
        "Address": "NO:90 2ND MILE POST, ELPITIYA ROAD, Ambalangoda, Sri Lanka",
        "Phone": "+94 71 263 3997",
        "Map Address (URL)": "https://maps.google.com/?cid=18154762017524920918",
        "Website": "N/A",
        "Rating": 4.7,
        "User Ratings Total": 13,
        "Latitude": 6.2629559,
        "Longitude": 80.06177749999999,
        "Place ID": "ChIJEzLbhBaB4ToRVrJT7N2r8vs"
    },
    {
        "Name": "J.A.T Hardware",
        "Address": "7323+XMG, B14, Ambalangoda, Sri Lanka",
        "Phone": "+94 77 538 9795",
        "Map Address (URL)": "https://maps.google.com/?cid=10406633592927817101",
        "Website": "N/A",
        "Rating": 4.5,
        "User Ratings Total": 11,
        "Latitude": 6.2524427,
        "Longitude": 80.0542134,
        "Place ID": "ChIJKyuEj6CB4ToRjQ0cth3Ka5A"
    },
    {
        "Name": "LK Hardware",
        "Address": "Kaikawala Road Gonagalapura, Bentota, Sri Lanka",
        "Phone": "N/A",
        "Map Address (URL)": "https://maps.google.com/?cid=2760711234838155281",
        "Website": "N/A",
        "Rating": 4.5,
        "User Ratings Total": 2,
        "Latitude": 6.3790423,
        "Longitude": 80.0277011,
        "Place ID": "ChIJ46D3shEr4joREVD1vz0EUCY"
    },
    {
        "Name": "Ashfaq’s Trade Center",
        "Address": "Dharga Town, Sri Lanka",
        "Phone": "+94 77 792 2533",
        "Map Address (URL)": "https://maps.google.com/?cid=9444906495051541844",
        "Website": "N/A",
        "Rating": 4.7,
        "User Ratings Total": 13,
        "Latitude": 6.43882,
        "Longitude": 80.0045473,
        "Place ID": "ChIJt5xxan4u4joRVK1TfmoME4M"
    },
    {
        "Name": "Welcome Hardware Stores",
        "Address": "146 Main Street, Uragasmanhandiya 80350, Sri Lanka",
        "Phone": "+94 912 264 093",
        "Map Address (URL)": "https://maps.google.com/?cid=3570555319110363256",
        "Website": "N/A",
        "Rating": 4.6,
        "User Ratings Total": 5,
        "Latitude": 6.3432149,
        "Longitude": 80.0828913,
        "Place ID": "ChIJ_xPEwMQq4joReGh0JiUpjTE"
    },
    {
        "Name": "W Tech Hardware",
        "Address": "No.158,Nape, Kosgoda, Balapitiya 80570, Sri Lanka",
        "Phone": "+94 77 162 3218",
        "Map Address (URL)": "https://maps.google.com/?cid=7458284712949861951",
        "Website": "N/A",
        "Rating": null,
        "User Ratings Total": null,
        "Latitude": 6.3392255,
        "Longitude": 80.02977159999999,
        "Place ID": "ChIJG8zV8-cr4joRP04aRW4mgWc"
    },
    {
        "Name": "New Madampalle Hardware Store",
        "Address": "7XC6+VV3, Akaragama, Sri Lanka",
        "Phone": "+94 312 269 242",
        "Map Address (URL)": "https://maps.google.com/?cid=18432593663294356035",
        "Website": "N/A",
        "Rating": 3.4,
        "User Ratings Total": 12,
        "Latitude": 7.272147999999999,
        "Longitude": 79.9621842,
        "Place ID": "ChIJ56GoJljm4joRQ7rG1Ua6zf8"
    },
    {
        "Name": "CHATHURA Hardware",
        "Address": "7W5W+QH, Akaragama, Sri Lanka",
        "Phone": "+94 77 463 6326",
        "Map Address (URL)": "https://maps.google.com/?cid=4097755440986738081",
        "Website": "N/A",
        "Rating": 4.7,
        "User Ratings Total": 3,
        "Latitude": 7.259447099999999,
        "Longitude": 79.94647309999999,
        "Place ID": "ChIJ4fxQguLn4joRoU1w3Nwm3jg"
    },
    {
        "Name": "Pahalagama Hardware",
        "Address": "3XRQ+9HG, Road, Gampaha 11000, Sri Lanka",
        "Phone": "N/A",
        "Map Address (URL)": "https://maps.google.com/?cid=8331013546536773353",
        "Website": "N/A",
        "Rating": 3.1,
        "User Ratings Total": 16,
        "Latitude": 7.0909493,
        "Longitude": 79.9889396,
        "Place ID": "ChIJEQ9W3ur74joR6aZKVK60nXM"
    },
    {
        "Name": "Easta Hardware",
        "Address": "32P5+77M, Gampaha, Sri Lanka",
        "Phone": "+94 71 439 8485",
        "Map Address (URL)": "https://maps.google.com/?cid=18263994932225078624",
        "Website": "N/A",
        "Rating": 4.9,
        "User Ratings Total": 11,
        "Latitude": 7.0857119,
        "Longitude": 80.0081811,
        "Place ID": "ChIJO5DvIvb74joRYHXPwp--dv0"
    },
    {
        "Name": "New Liyanage Enterprises",
        "Address": "No. 117/B New Minuwangoda Rd, Gampaha, Sri Lanka",
        "Phone": "+94 332 232 719",
        "Map Address (URL)": "https://maps.google.com/?cid=494677891106701187",
        "Website": "N/A",
        "Rating": 3.8,
        "User Ratings Total": 37,
        "Latitude": 7.099533699999999,
        "Longitude": 79.9910974,
        "Place ID": "ChIJyUSTl3v74joRg3-nyety3QY"
    },
    {
        "Name": "Jinasena Brothers",
        "Address": "No.02, Bauddhaloka Mawatha, Gampaha, Sri Lanka, 02 Bauddhaloka Mawatha, Gampaha 11000, Sri Lanka",
        "Phone": "+94 77 809 0899",
        "Map Address (URL)": "https://maps.google.com/?cid=8037185828282372648",
        "Website": "https://www.facebook.com/share/1DfrU4j7aJ/?mibextid=wwXIfr",
        "Rating": 4.4,
        "User Ratings Total": 11,
        "Latitude": 7.0921955,
        "Longitude": 79.99537939999999,
        "Place ID": "ChIJsVU_05L74joRKBKTkO3RiW8"
    },
    {
        "Name": "Abeysinghe Hardware stores",
        "Address": "2XV5+C9H, Kadawatha - Ganemulla Rd, Ganemulla 11010, Sri Lanka",
        "Phone": "+94 332 260 796",
        "Map Address (URL)": "https://maps.google.com/?cid=2413802526964477834",
        "Website": "https://www.facebook.com/abeysinghehardware/",
        "Rating": 4.7,
        "User Ratings Total": 38,
        "Latitude": 7.0435598,
        "Longitude": 79.9584699,
        "Place ID": "ChIJPR7cAaT54joRim-oAZyMfyE"
    },
    {
        "Name": "Ekanayake Hardware",
        "Address": "No 260/2A Kandy Rd, Mudungoda, Sri Lanka",
        "Phone": "+94 77 315 2556",
        "Map Address (URL)": "https://maps.google.com/?cid=3928993326875884121",
        "Website": "N/A",
        "Rating": 4.8,
        "User Ratings Total": 15,
        "Latitude": 7.0749061,
        "Longitude": 80.0178124,
        "Place ID": "ChIJwUTBEQP84joRWTpRNZ2WhjY"
    },
    {
        "Name": "Walpola Hardware",
        "Address": "Asgiriwalpola-Jambuwatta Road, Gampaha, Sri Lanka",
        "Phone": "+94 76 901 3851",
        "Map Address (URL)": "https://maps.google.com/?cid=5773874813980328308",
        "Website": "N/A",
        "Rating": 4.1,
        "User Ratings Total": 31,
        "Latitude": 7.1064834,
        "Longitude": 79.9776011,
        "Place ID": "ChIJEy7pyaX74joRdEHfUI3sIFA"
    },
    {
        "Name": "Nawa Niwasa - Hemantha Enterprises",
        "Address": "Udugampola - Divulapitiya Rd, Pethiyagoda, Sri Lanka",
        "Phone": "+94 332 220 289",
        "Map Address (URL)": "https://maps.google.com/?cid=7343730685647778754",
        "Website": "N/A",
        "Rating": 4.3,
        "User Ratings Total": 24,
        "Latitude": 7.130286799999999,
        "Longitude": 79.99352569999999,
        "Place ID": "ChIJm6XEOGn74joRwvMrXCYs6mU"
    },
    {
        "Name": "Saviya Hardware Stores",
        "Address": "25, Kumarathunga Mawatha, Gampaha, Sri Lanka",
        "Phone": "+94 332 239 483",
        "Map Address (URL)": "https://maps.google.com/?cid=1534797603081488929",
        "Website": "N/A",
        "Rating": 4,
        "User Ratings Total": 5,
        "Latitude": 7.0900279,
        "Longitude": 79.99033,
        "Place ID": "ChIJofInSOr74joRIQrLzUmyTBU"
    },
    {
        "Name": "Weerawardena Hardware",
        "Address": "32WR+338, A1, Weediyawatta, Sri Lanka",
        "Phone": "+94 332 224 005",
        "Map Address (URL)": "https://maps.google.com/?cid=14659367413822765023",
        "Website": "N/A",
        "Rating": 3.8,
        "User Ratings Total": 65,
        "Latitude": 7.0951701,
        "Longitude": 80.04019079999999,
        "Place ID": "ChIJB624LD_84joR37fXhP6IcMs"
    },
    {
        "Name": "Dayani Hardware",
        "Address": "Yakkala, Sri Lanka",
        "Phone": "+94 332 221 988",
        "Map Address (URL)": "https://maps.google.com/?cid=1620983636184529591",
        "Website": "N/A",
        "Rating": 4.1,
        "User Ratings Total": 140,
        "Latitude": 7.0833039,
        "Longitude": 80.0358826,
        "Place ID": "ChIJ5byYujz84joRt_p_XQfkfhY"
    },
    {
        "Name": "Rabarwattha Hardware",
        "Address": "Kaluwala Rd, Sri Lanka",
        "Phone": "+94 77 966 8730",
        "Map Address (URL)": "https://maps.google.com/?cid=16365998888107645210",
        "Website": "N/A",
        "Rating": 4.6,
        "User Ratings Total": 12,
        "Latitude": 7.0499807,
        "Longitude": 79.9773651,
        "Place ID": "ChIJ98F6iOb54joRGhkYKEe1H-M"
    },
    {
        "Name": "Jayasinghe Suppliers",
        "Address": "139/B, Gampaha, Sri Lanka",
        "Phone": "+94 332 223 176",
        "Map Address (URL)": "https://maps.google.com/?cid=11655264978261215077",
        "Website": "N/A",
        "Rating": 4.8,
        "User Ratings Total": 6,
        "Latitude": 7.1105614,
        "Longitude": 79.9872299,
        "Place ID": "ChIJbxXmd5_74joRZYdP2L7Rv6E"
    },
    {
        "Name": "Gunasiri Hardware",
        "Address": "Ganemulla, Sri Lanka",
        "Phone": "+94 332 260 303",
        "Map Address (URL)": "https://maps.google.com/?cid=11321550956079168709",
        "Website": "N/A",
        "Rating": 4.3,
        "User Ratings Total": 38,
        "Latitude": 7.069883399999999,
        "Longitude": 79.9617799,
        "Place ID": "ChIJlXN9eYD54joRxTyVQ5w6Hp0"
    },
    {
        "Name": "Thenumi Hardware",
        "Address": "4228+96J, Gampaha, Sri Lanka",
        "Phone": "+94 77 405 0141",
        "Map Address (URL)": "https://maps.google.com/?cid=7588693117001443560",
        "Website": "N/A",
        "Rating": 4.3,
        "User Ratings Total": 20,
        "Latitude": 7.1009559,
        "Longitude": 80.0155209,
        "Place ID": "ChIJqeCutvL94joR6KhS7C50UGk"
    },
    {
        "Name": "ජයමාන්න හාර්ඩ්වෙයාර්",
        "Address": "3X7V+W84, Gampaha, Sri Lanka",
        "Phone": "+94 77 715 9880",
        "Map Address (URL)": "https://maps.google.com/?cid=8440371769620339559",
        "Website": "N/A",
        "Rating": 4.1,
        "User Ratings Total": 18,
        "Latitude": 7.064754199999999,
        "Longitude": 79.9933205,
        "Place ID": "ChIJrY_L6Vv54joRZ5t0zGc5InU"
    },
    {
        "Name": "Saraboomi Hardware & Nippon Paint CCM",
        "Address": "3238+MJM, Gampaha, Sri Lanka",
        "Phone": "+94 77 258 3811",
        "Map Address (URL)": "https://maps.google.com/?cid=12635675011932170153",
        "Website": "N/A",
        "Rating": 4.4,
        "User Ratings Total": 20,
        "Latitude": 7.0542187,
        "Longitude": 80.0165622,
        "Place ID": "ChIJ2xBQ3bb-4joRqSd_B3rvWq8"
    },
    {
        "Name": "Senarathna Hardware",
        "Address": "3XRX+XVC, Marybiso Rd, Gampaha, Sri Lanka",
        "Phone": "+94 332 227 049",
        "Map Address (URL)": "https://maps.google.com/?cid=1369038015520815792",
        "Website": "N/A",
        "Rating": 3.7,
        "User Ratings Total": 3,
        "Latitude": 7.092437899999999,
        "Longitude": 79.999642,
        "Place ID": "ChIJ64qUMo374joRsLofV9LM_xI"
    },
    {
        "Name": "Chamil Hardware",
        "Address": "Colombo - Batticaloa Hwy, කොළඹ, Sri Lanka",
        "Phone": "+94 71 633 3288",
        "Map Address (URL)": "https://maps.google.com/?cid=8526653177647525808",
        "Website": "N/A",
        "Rating": 4,
        "User Ratings Total": 5,
        "Latitude": 6.6087978,
        "Longitude": 80.62104649999999,
        "Place ID": "ChIJm-rTyJrt4zoRsO-ikOPBVHY"
    },
    {
        "Name": "Ransada hardware",
        "Address": "JJ46+FHR, Sri Lanka",
        "Phone": "N/A",
        "Map Address (URL)": "https://maps.google.com/?cid=11574527621653470167",
        "Website": "N/A",
        "Rating": null,
        "User Ratings Total": null,
        "Latitude": 6.6062388,
        "Longitude": 80.6113883,
        "Place ID": "ChIJo6Wo75ft4zoR1xuaI4z7oKA"
    },
    {
        "Name": "Kahawatta Glass",
        "Address": "HHHF+2WG, Kahawatta, Sri Lanka",
        "Phone": "+94 77 351 9132",
        "Map Address (URL)": "https://maps.google.com/?cid=11577231962470456593",
        "Website": "N/A",
        "Rating": 4.1,
        "User Ratings Total": 19,
        "Latitude": 6.5775513,
        "Longitude": 80.57483909999999,
        "Place ID": "ChIJ92piUSbs4zoREZ1ZjSGXqqA"
    },
    {
        "Name": "K.S.L.K Construction and Hardware",
        "Address": "GJF2+4WJ, Pelmadulla - Embilipitiya Hwy, Kavuduwawa, Sri Lanka",
        "Phone": "+94 77 042 3740",
        "Map Address (URL)": "https://maps.google.com/?cid=5927262852241245008",
        "Website": "N/A",
        "Rating": null,
        "User Ratings Total": null,
        "Latitude": 6.5228474,
        "Longitude": 80.6022528,
        "Place ID": "ChIJkb0ij-Hv4zoRUEM1_ijeQVI"
    },
    {
        "Name": "Lahiru h w",
        "Address": "Bo Tree Junction Bus Stop, Kahawatta - Samarkanda Rd, Endana, Sri Lanka",
        "Phone": "+94 452 050 005",
        "Map Address (URL)": "https://maps.google.com/?cid=17601726276647669744",
        "Website": "N/A",
        "Rating": 2,
        "User Ratings Total": 1,
        "Latitude": 6.5226837,
        "Longitude": 80.5265611,
        "Place ID": "ChIJdx4osTnp4zoR8E8-acrkRfQ"
    },
    {
        "Name": "Calton hill estate and hardwear",
        "Address": "CJHF+CQ5, A17, Suriyakanda, Sri Lanka",
        "Phone": "+94 71 664 5976",
        "Map Address (URL)": "https://maps.google.com/?cid=12942887414310599673",
        "Website": "N/A",
        "Rating": 5,
        "User Ratings Total": 1,
        "Latitude": 6.428512599999999,
        "Longitude": 80.6244834,
        "Place ID": "ChIJHXYgV6Tl4zoR-XvbaYdfnrM"
    },
    {
        "Name": "Kadukara Hardware",
        "Address": "8HP5+MQW, A17, Deniyaya, Sri Lanka",
        "Phone": "+94 412 273 430",
        "Map Address (URL)": "https://maps.google.com/?cid=12019844850726077951",
        "Website": "N/A",
        "Rating": 4.6,
        "User Ratings Total": 19,
        "Latitude": 6.336747799999999,
        "Longitude": 80.55946,
        "Place ID": "ChIJqdUXRhHi4zoR_wXWNjURz6Y"
    },
    {
        "Name": "Lanka Hardware",
        "Address": "VV6G+92R, Sri Lanka",
        "Phone": "+94 572 280 254",
        "Map Address (URL)": "https://maps.google.com/?cid=3824677669930003779",
        "Website": "N/A",
        "Rating": 5,
        "User Ratings Total": 5,
        "Latitude": 6.8609921,
        "Longitude": 80.8750247,
        "Place ID": "ChIJ-RDfgB955DoRQ-2LqBP8EzU"
    },
    {
        "Name": "Lucky Hardware",
        "Address": "P4J2+PJW, Wellawaya, Sri Lanka",
        "Phone": "+94 552 274 991",
        "Map Address (URL)": "https://maps.google.com/?cid=13315707629646160723",
        "Website": "N/A",
        "Rating": 3,
        "User Ratings Total": 3,
        "Latitude": 6.731872999999999,
        "Longitude": 81.1015657,
        "Place ID": "ChIJ1dz23YNr5DoRU6MEHorlyrg"
    },
    {
        "Name": "Lanka Hardware",
        "Address": "Lanka Hardware, Thanamalwila, Sri Lanka",
        "Phone": "+94 472 285 145",
        "Map Address (URL)": "https://maps.google.com/?cid=9323797077502373307",
        "Website": "N/A",
        "Rating": 4.8,
        "User Ratings Total": 6,
        "Latitude": 6.4405891,
        "Longitude": 81.13089029999999,
        "Place ID": "ChIJ6SFk1owZ5DoRu61a2grIZIE"
    },
    {
        "Name": "Jega Hardware",
        "Address": "Marassana - Kolabissa Rd, 20000, Sri Lanka",
        "Phone": "+94 77 603 1627",
        "Map Address (URL)": "https://maps.google.com/?cid=17689469458742559699",
        "Website": "https://www.instagram.com/jega_hardware/profilecard/?igsh=MXJtYzl4cHk1aTVoaA==",
        "Rating": 4.9,
        "User Ratings Total": 9,
        "Latitude": 7.209574099999999,
        "Longitude": 80.7547408,
        "Place ID": "ChIJz_p5B1Jj4zoR08N4-b-effU"
    },
    {
        "Name": "Sandeepa Hardware",
        "Address": "Sandware ,Thimbolketiya ,colambageara, CQ7V+86Q, Udawalawa, Sri Lanka",
        "Phone": "+94 472 232 091",
        "Map Address (URL)": "https://maps.google.com/?cid=12978276052307846657",
        "Website": "N/A",
        "Rating": 4.1,
        "User Ratings Total": 17,
        "Latitude": 6.4133317,
        "Longitude": 80.7931017,
        "Place ID": "ChIJLUckerT44zoRAabExk4ZHLQ"
    },
    {
        "Name": "Kiribathgala Hardware",
        "Address": "Kiribathgala, Sri Lanka",
        "Phone": "+94 71 168 6422",
        "Map Address (URL)": "https://maps.google.com/?cid=8642025320849499603",
        "Website": "N/A",
        "Rating": 5,
        "User Ratings Total": 2,
        "Latitude": 6.5968569,
        "Longitude": 80.5142746,
        "Place ID": "ChIJYRfH-czr4zoR02Uq7T2k7nc"
    },
    {
        "Name": "Asian Hardware",
        "Address": "100 Main Street, Haputale, Sri Lanka",
        "Phone": "+94 572 268 308",
        "Map Address (URL)": "https://maps.google.com/?cid=17544521273357200030",
        "Website": "N/A",
        "Rating": 5,
        "User Ratings Total": 4,
        "Latitude": 6.7683286,
        "Longitude": 80.9589835,
        "Place ID": "ChIJ28KPEjhx5DoRnmq9rCSpevM"
    },
    {
        "Name": "Harsha Hadware",
        "Address": "Meeghajandura, Sooriyawewa, Sri Lanka",
        "Phone": "+94 71 483 0877",
        "Map Address (URL)": "https://maps.google.com/?cid=5650045838339267870",
        "Website": "N/A",
        "Rating": 5,
        "User Ratings Total": 2,
        "Latitude": 6.3555192,
        "Longitude": 81.0331078,
        "Place ID": "ChIJycY_j0cd5DoRHt3iNsH-aE4"
    },
    {
        "Name": "Dhulaj Hardware Store",
        "Address": "X9HC+6JW, Monaragala, Sri Lanka",
        "Phone": "+94 77 164 9623",
        "Map Address (URL)": "https://maps.google.com/?cid=8361798253806693005",
        "Website": "N/A",
        "Rating": 4.8,
        "User Ratings Total": 8,
        "Latitude": 6.9781154,
        "Longitude": 81.3715869,
        "Place ID": "ChIJLcOLUllX5DoRjSqhiTUTC3Q"
    },
    {
        "Name": "GAYAN HARDWARE",
        "Address": "P6V8+MQV, Veheragala, Sri Lanka",
        "Phone": "N/A",
        "Map Address (URL)": "https://maps.google.com/?cid=10460941958355147476",
        "Website": "N/A",
        "Rating": 5,
        "User Ratings Total": 1,
        "Latitude": 6.7442338,
        "Longitude": 81.2169359,
        "Place ID": "ChIJKy7KmU5B5DoR1Nq8Y0m7LJE"
    },
    {
        "Name": "Prathapasinghe Hardware",
        "Address": "NO 137, Thissa Road A2, Wellawaya, Sri Lanka",
        "Phone": "+94 552 274 612",
        "Map Address (URL)": "https://maps.google.com/?cid=8903745107329031629",
        "Website": "N/A",
        "Rating": 4.2,
        "User Ratings Total": 5,
        "Latitude": 6.730014,
        "Longitude": 81.102734,
        "Place ID": "ChIJ48jdK79r5DoRzR34RAB1kHs"
    },
    {
        "Name": "Janith Hardware",
        "Address": "Wellawaya Road, Kuda Oya, A2, Sri Lanka",
        "Phone": "+94 72 191 4776",
        "Map Address (URL)": "https://maps.google.com/?cid=14727598167694459148",
        "Website": "N/A",
        "Rating": 4.5,
        "User Ratings Total": 2,
        "Latitude": 6.5218986,
        "Longitude": 81.1252141,
        "Place ID": "ChIJGcHyAqIX5DoRDEEf3IDwYsw"
    },
    {
        "Name": "Sampath Hardware",
        "Address": "sooriyawewa ,weliwew, Sri Lanka",
        "Phone": "+94 70 563 0040",
        "Map Address (URL)": "https://maps.google.com/?cid=4711801277032223797",
        "Website": "N/A",
        "Rating": 4.7,
        "User Ratings Total": 6,
        "Latitude": 6.3414747,
        "Longitude": 81.01123439999999,
        "Place ID": "ChIJWei-dCId5DoRNdS8GUyuY0E"
    },
    {
        "Name": "Thilaka hardware",
        "Address": "P28R+R34, A4, Uva-Gampaha, Sri Lanka",
        "Phone": "+94 70 777 4665",
        "Map Address (URL)": "https://maps.google.com/?cid=17043543802133040511",
        "Website": "N/A",
        "Rating": 5,
        "User Ratings Total": 5,
        "Latitude": 6.717010300000001,
        "Longitude": 81.0401499,
        "Place ID": "ChIJlYD2OQFt5DoRf03zl8nUhuw"
    },
    {
        "Name": "ප්‍රතිභානි Hardware",
        "Address": "M4Q5+G2, Wellawaya, Sri Lanka",
        "Phone": "+94 70 343 9725",
        "Map Address (URL)": "https://maps.google.com/?cid=11904173575317908258",
        "Website": "N/A",
        "Rating": 4.3,
        "User Ratings Total": 3,
        "Latitude": 6.6886759,
        "Longitude": 81.1075458,
        "Place ID": "ChIJL74hxZhr5DoRImtqtcseNKU"
    },
    {
        "Name": "Sumeda Hardware",
        "Address": "P474+6C8, A4, Monaragala, Sri Lanka",
        "Phone": "+94 77 604 4630",
        "Map Address (URL)": "https://maps.google.com/?cid=12913143635693749764",
        "Website": "N/A",
        "Rating": 4.4,
        "User Ratings Total": 17,
        "Latitude": 6.7130459,
        "Longitude": 81.1060754,
        "Place ID": "ChIJDYSfpqdr5DoRBEYfS7izNLM"
    },
    {
        "Name": "Amila Hardware",
        "Address": "V9C3+P49, Monaragala, Sri Lanka",
        "Phone": "+94 552 055 400",
        "Map Address (URL)": "https://maps.google.com/?cid=10693791852285910306",
        "Website": "N/A",
        "Rating": 3.4,
        "User Ratings Total": 7,
        "Latitude": 6.871795499999999,
        "Longitude": 81.3528662,
        "Place ID": "ChIJHYq45LBR5DoRIt13EQj7Z5Q"
    },
    {
        "Name": "Sinha hardware",
        "Address": "9X8C+HQM, මොණරාගල, Sri Lanka",
        "Phone": "N/A",
        "Map Address (URL)": "https://maps.google.com/?cid=11543532545034285390",
        "Website": "N/A",
        "Rating": 4.2,
        "User Ratings Total": 24,
        "Latitude": 6.3664556,
        "Longitude": 80.9719205,
        "Place ID": "ChIJtwtWXdkC5DoRTvHtf7DdMqA"
    },
    {
        "Name": "Dhammika Hardware",
        "Address": "J769+CV9, Sri Lanka",
        "Phone": "+94 70 140 0422",
        "Map Address (URL)": "https://maps.google.com/?cid=1446591611693522820",
        "Website": "N/A",
        "Rating": 5,
        "User Ratings Total": 5,
        "Latitude": 6.611047999999999,
        "Longitude": 81.26974899999999,
        "Place ID": "ChIJcb3NE3w55DoRhF8NDmhTExQ"
    },
    {
        "Name": "New Hansana Hardware And Yasasi Super City",
        "Address": "M44P+M95, Sri Lanka",
        "Phone": "+94 552 055 081",
        "Map Address (URL)": "https://maps.google.com/?cid=16752756181092399396",
        "Website": "N/A",
        "Rating": 4.6,
        "User Ratings Total": 12,
        "Latitude": 6.656636199999999,
        "Longitude": 81.13597209999999,
        "Place ID": "ChIJU3hXr0kV5DoRJPm9nvy-feg"
    },
    {
        "Name": "Sajan Hardware",
        "Address": "98J8+V32, Kataragama, Sri Lanka",
        "Phone": "+94 71 493 7303",
        "Map Address (URL)": "https://maps.google.com/?cid=723624588174561692",
        "Website": "N/A",
        "Rating": 4.5,
        "User Ratings Total": 2,
        "Latitude": 6.3821258,
        "Longitude": 81.3151316,
        "Place ID": "ChIJ69s0Ccsn5DoRnBHioLrUCgo"
    },
    {
        "Name": "Sri Land Hardware",
        "Address": "4QWM+9QW, B413, Rikillagaskada, Sri Lanka",
        "Phone": "+94 812 365 308",
        "Map Address (URL)": "https://maps.google.com/?cid=7843793716528223664",
        "Website": "N/A",
        "Rating": 3.1,
        "User Ratings Total": 7,
        "Latitude": 7.1459847,
        "Longitude": 80.7844526,
        "Place ID": "ChIJwwqShxN94zoRsBUbtdPA2mw"
    },
    {
        "Name": "KK Hardware",
        "Address": "Sri Lanka",
        "Phone": "+94 77 040 2640",
        "Map Address (URL)": "https://maps.google.com/?cid=12475502541653076625",
        "Website": "N/A",
        "Rating": 4,
        "User Ratings Total": 7,
        "Latitude": 6.6065934,
        "Longitude": 80.6049093,
        "Place ID": "ChIJ3QjqVbvt4zoRkeq2rXbjIa0"
    },
    {
        "Name": "Polhena Hardware (පොල්හේන හාඩ්වෙයාර් )",
        "Address": "Akmeemana, Sri Lanka",
        "Phone": "N/A",
        "Map Address (URL)": "https://maps.google.com/?cid=13049222241651990120",
        "Website": "N/A",
        "Rating": 3.5,
        "User Ratings Total": 34,
        "Latitude": 6.0812651,
        "Longitude": 80.289867,
        "Place ID": "ChIJ6RCSMRdu4ToRaB7LtH0mGLU"
    },
    {
        "Name": "SEAGIRI HARDWARE",
        "Address": "37PX+CQ9, Akmeemana, Sri Lanka",
        "Phone": "N/A",
        "Map Address (URL)": "https://maps.google.com/?cid=11169490665383189173",
        "Website": "N/A",
        "Rating": 4.5,
        "User Ratings Total": 11,
        "Latitude": 6.0860332,
        "Longitude": 80.29947659999999,
        "Place ID": "ChIJoWo5qWpu4ToRtdo06JQAAps"
    },
    {
        "Name": "Deelaka hardware",
        "Address": "Jayanthi Junction Bus Stop, 37JP+G39, B129, Akmeemana, Sri Lanka",
        "Phone": "N/A",
        "Map Address (URL)": "https://maps.google.com/?cid=14628414041573230379",
        "Website": "N/A",
        "Rating": 5,
        "User Ratings Total": 1,
        "Latitude": 6.081285299999999,
        "Longitude": 80.285249,
        "Place ID": "ChIJp1mJZjJv4ToRKwdP7xCRAss"
    },
    {
        "Name": "Geeganage Hardware",
        "Address": "37JP+F55, Akmeemana, Sri Lanka",
        "Phone": "N/A",
        "Map Address (URL)": "https://maps.google.com/?cid=7913737341066442053",
        "Website": "N/A",
        "Rating": 5,
        "User Ratings Total": 1,
        "Latitude": 6.0811304,
        "Longitude": 80.2854827,
        "Place ID": "ChIJqa-ohhlu4ToRRXUC1C4-020"
    },
    {
        "Name": "Indika Hardware & News Agency - Akmeemana",
        "Address": "Pinnaduwa Exit, Galle, Sri Lanka",
        "Phone": "+94 72 410 6325",
        "Map Address (URL)": "https://maps.google.com/?cid=15764572935600869646",
        "Website": "N/A",
        "Rating": null,
        "User Ratings Total": null,
        "Latitude": 6.068639999999999,
        "Longitude": 80.2688175,
        "Place ID": "ChIJz0VUBWRx4ToRDhE6ho8Dx9o"
    },
    {
        "Name": "Wijaya ceramic",
        "Address": "37JQ+8GM, Galle - Udugama Rd, Akmeemana, Sri Lanka",
        "Phone": "+94 77 282 9186",
        "Map Address (URL)": "https://maps.google.com/?cid=18307613411221849148",
        "Website": "N/A",
        "Rating": null,
        "User Ratings Total": null,
        "Latitude": 6.0808384,
        "Longitude": 80.2888108,
        "Place ID": "ChIJmVTwCABv4ToRPEQOTWa1Ef4"
    },
    {
        "Name": "MANGO Hardware",
        "Address": "37QH+QCW, Galle, Sri Lanka",
        "Phone": "+94 77 714 0119",
        "Map Address (URL)": "https://maps.google.com/?cid=10907107709701029891",
        "Website": "N/A",
        "Rating": 5,
        "User Ratings Total": 11,
        "Latitude": 6.0891939,
        "Longitude": 80.2779479,
        "Place ID": "ChIJWztwzMVv4ToRA4Cnc6zUXZc"
    },
    {
        "Name": "Akrams Hardware",
        "Address": "17 Old Matara Rd, Galle 80000, Sri Lanka",
        "Phone": "+94 912 234 550",
        "Map Address (URL)": "https://maps.google.com/?cid=15909805261000220563",
        "Website": "http://akramshardware.com/",
        "Rating": 3.7,
        "User Ratings Total": 92,
        "Latitude": 6.0360713,
        "Longitude": 80.2209402,
        "Place ID": "ChIJuWQndrpz4ToRkx-PU5f7ytw"
    },
    {
        "Name": "Senuwara hardware",
        "Address": "37HQ+28, Akmeemana, Sri Lanka",
        "Phone": "N/A",
        "Map Address (URL)": "https://maps.google.com/?cid=16443808373340600856",
        "Website": "N/A",
        "Rating": null,
        "User Ratings Total": null,
        "Latitude": 6.07759,
        "Longitude": 80.2883744,
        "Place ID": "ChIJQ2MR5tNv4ToRGHqPr5ckNOQ"
    },
    {
        "Name": "Manamperi Hardware (Pvt) Ltd",
        "Address": "Old Matara Rd, Galle 80000, Sri Lanka",
        "Phone": "+94 917 200 200",
        "Map Address (URL)": "https://maps.google.com/?cid=11245172485169528885",
        "Website": "https://manamperihardware.com/",
        "Rating": 4,
        "User Ratings Total": 46,
        "Latitude": 6.0376243,
        "Longitude": 80.2239087,
        "Place ID": "ChIJdzFZKrFz4ToRNcCGuMvgDpw"
    },
    {
        "Name": "Gamage hardware",
        "Address": "37H4+2PX, Akmeemana, Sri Lanka",
        "Phone": "N/A",
        "Map Address (URL)": "https://maps.google.com/?cid=8257851891166467341",
        "Website": "N/A",
        "Rating": null,
        "User Ratings Total": null,
        "Latitude": 6.0776165,
        "Longitude": 80.25684760000001,
        "Place ID": "ChIJ3TPxW5Vx4ToRDdXDBIvImXI"
    },
    {
        "Name": "M H CADER MEESA",
        "Address": "29 Ward St, Galle 80000, Sri Lanka",
        "Phone": "+94 912 223 693",
        "Map Address (URL)": "https://maps.google.com/?cid=10378947166034238775",
        "Website": "N/A",
        "Rating": 4.9,
        "User Ratings Total": 17,
        "Latitude": 6.035539099999999,
        "Longitude": 80.21938949999999,
        "Place ID": "ChIJAdIrXLpz4ToRN50EHnVtCZA"
    },
    {
        "Name": "Madushanka Hardware",
        "Address": "47HP+26, Mabotuwana, Sri Lanka",
        "Phone": "+94 77 288 1535",
        "Map Address (URL)": "https://maps.google.com/?cid=7796398575126201253",
        "Website": "N/A",
        "Rating": 4.8,
        "User Ratings Total": 24,
        "Latitude": 6.1283734,
        "Longitude": 80.28628359999999,
        "Place ID": "ChIJfVYfYORv4ToRpUPCbTJfMmw"
    },
    {
        "Name": "wardana hardware(Pvt)Ltd",
        "Address": "286/c Kabarayamulla,ankokawala, Galle, Sri Lanka",
        "Phone": "+94 77 603 2591",
        "Map Address (URL)": "https://maps.google.com/?cid=387546498159454696",
        "Website": "N/A",
        "Rating": 4.6,
        "User Ratings Total": 10,
        "Latitude": 6.0620138,
        "Longitude": 80.265546,
        "Place ID": "ChIJsTA0nnNz4ToR6Km9nHzXYAU"
    },
    {
        "Name": "Malaka Hardware",
        "Address": "37FW+PMW, Reservoir Road, Hiyare, Sri Lanka",
        "Phone": "N/A",
        "Map Address (URL)": "https://maps.google.com/?cid=9896514652520264578",
        "Website": "N/A",
        "Rating": 3.7,
        "User Ratings Total": 7,
        "Latitude": 6.0743668,
        "Longitude": 80.2967103,
        "Place ID": "ChIJLfmJDA1u4ToRgjPreaR7V4k"
    },
    {
        "Name": "Manjula hardware",
        "Address": "Akuressa road, Galle 82000, Sri Lanka",
        "Phone": "+94 77 574 8516",
        "Map Address (URL)": "https://maps.google.com/?cid=16595711566289856135",
        "Website": "N/A",
        "Rating": 4,
        "User Ratings Total": 23,
        "Latitude": 6.0338604,
        "Longitude": 80.2637063,
        "Place ID": "ChIJ8b_5jm9y4ToRh2aM373PT-Y"
    },
    {
        "Name": "H.G.T.Hardware Ketandola",
        "Address": "38G6+9RM, Akmeemana, Sri Lanka",
        "Phone": "N/A",
        "Map Address (URL)": "https://maps.google.com/?cid=7396466073638441416",
        "Website": "N/A",
        "Rating": null,
        "User Ratings Total": null,
        "Latitude": 6.075973599999999,
        "Longitude": 80.3120461,
        "Place ID": "ChIJwYkaaM1v4ToRyJFysLSGpWY"
    },
    {
        "Name": "TATA STEEL TRADING",
        "Address": "187 Matale Rd, Akurana 20850, Sri Lanka",
        "Phone": "+94 77 848 5234",
        "Map Address (URL)": "https://maps.google.com/?cid=11004953668559711084",
        "Website": "N/A",
        "Rating": 5,
        "User Ratings Total": 1,
        "Latitude": 7.374144500000001,
        "Longitude": 80.6192559,
        "Place ID": "ChIJIRMFwSJD4zoRbCsiCA5zuZg"
    },
    {
        "Name": "MFM Computers",
        "Address": "143, 07 Matale Rd, Akurana, Sri Lanka",
        "Phone": "+94 812 060 868",
        "Map Address (URL)": "https://maps.google.com/?cid=18285322863950963019",
        "Website": "N/A",
        "Rating": 4,
        "User Ratings Total": 37,
        "Latitude": 7.3736225,
        "Longitude": 80.6185505,
        "Place ID": "ChIJEUuSHNtC4zoRSyEg1UOEwv0"
    },
    {
        "Name": "Dispriya Engineering",
        "Address": "Dispriya engineering, mathale road, Dodamgaslanda, 9JF9+85J, Akurana, Sri Lanka",
        "Phone": "N/A",
        "Map Address (URL)": "https://maps.google.com/?cid=10576086682903664316",
        "Website": "N/A",
        "Rating": null,
        "User Ratings Total": null,
        "Latitude": 7.373348099999999,
        "Longitude": 80.61790549999999,
        "Place ID": "ChIJgbTDTwBD4zoRvFY2uM3OxZI"
    },
    {
        "Name": "Jayasundara Hardware (Pvt) Ltd",
        "Address": "No; 133 / 1 Deniyaya Road, Akuressa 81400, Sri Lanka",
        "Phone": "+94 412 283 196",
        "Map Address (URL)": "https://maps.google.com/?cid=1824960748072474701",
        "Website": "http://jayasundarahardware.com/",
        "Rating": 3.4,
        "User Ratings Total": 16,
        "Latitude": 6.1034703,
        "Longitude": 80.4760388,
        "Place ID": "ChIJVXAb4WdC4ToRTRjknSGQUxk"
    },
    {
        "Name": "Munasinghe hardware akuressa",
        "Address": "4F2G+VJ7 Market, Akuressa - Ketanwila Rd, Akuressa, Sri Lanka",
        "Phone": "+94 412 283 325",
        "Map Address (URL)": "https://maps.google.com/?cid=937586946615025763",
        "Website": "N/A",
        "Rating": 5,
        "User Ratings Total": 2,
        "Latitude": 6.1021641,
        "Longitude": 80.4765577,
        "Place ID": "ChIJp0AcC5FD4ToRYyAIQ1z6Ag0"
    },
    {
        "Name": "rathnayakA Hardware",
        "Address": "Akuressa, Sri Lanka",
        "Phone": "N/A",
        "Map Address (URL)": "https://maps.google.com/?cid=17439629528629076620",
        "Website": "N/A",
        "Rating": 4,
        "User Ratings Total": 5,
        "Latitude": 6.102337200000001,
        "Longitude": 80.4764052,
        "Place ID": "ChIJYddczc9D4ToRjGJZPKgCBvI"
    },
    {
        "Name": "Chaminda Hardware",
        "Address": "4FGQ+QVM, Akuressa-Pasgoda Rd, Akuressa, Sri Lanka",
        "Phone": "+94 77 774 7822",
        "Map Address (URL)": "https://maps.google.com/?cid=14473789968291222727",
        "Website": "N/A",
        "Rating": 5,
        "User Ratings Total": 2,
        "Latitude": 6.126960299999999,
        "Longitude": 80.4896777,
        "Place ID": "ChIJHROpcuZC4ToRx1ScbUo73cg"
    },
    {
        "Name": "Ranaweera Hardware",
        "Address": "4F2H+7WC, Akuressa, Sri Lanka",
        "Phone": "N/A",
        "Map Address (URL)": "https://maps.google.com/?cid=9858599886426803560",
        "Website": "N/A",
        "Rating": 5,
        "User Ratings Total": 1,
        "Latitude": 6.1006882,
        "Longitude": 80.4797572,
        "Place ID": "ChIJXzjTJ11C4ToRaA0tFV3I0Ig"
    },
    {
        "Name": "Samarasinghe Hardware Stores",
        "Address": "2FGW+7GQ, Akuressa - Malimbada Rd, Akuressa, Sri Lanka",
        "Phone": "N/A",
        "Map Address (URL)": "https://maps.google.com/?cid=12704854704629908060",
        "Website": "N/A",
        "Rating": 4,
        "User Ratings Total": 7,
        "Latitude": 6.025707199999999,
        "Longitude": 80.4963554,
        "Place ID": "ChIJBxRa51RA4ToRXIJqaAq2ULA"
    },
    {
        "Name": "Ranaweera Miyora",
        "Address": "No 8 Deniyaya - Wiharahena Rd, Akuressa 81400, Sri Lanka",
        "Phone": "+94 412 283 294",
        "Map Address (URL)": "https://maps.google.com/?cid=2099803885319552862",
        "Website": "N/A",
        "Rating": 1,
        "User Ratings Total": 1,
        "Latitude": 6.1003151,
        "Longitude": 80.4775217,
        "Place ID": "ChIJd8s8NUJD4ToRXv90KoIAJB0"
    },
    {
        "Name": "SIVILIMA AKURESSA",
        "Address": "4F2G+RJ3, Akuressa, Sri Lanka",
        "Phone": "+94 72 040 0169",
        "Map Address (URL)": "https://maps.google.com/?cid=15595215807833069450",
        "Website": "N/A",
        "Rating": null,
        "User Ratings Total": null,
        "Latitude": 6.1021,
        "Longitude": 80.476438,
        "Place ID": "ChIJOz60QgBD4ToRildydSZWbdg"
    },
    {
        "Name": "Swashakthi Hardware",
        "Address": "Gallewaththa Malawwa, Akuressa, Sri Lanka",
        "Phone": "+94 71 708 2549",
        "Map Address (URL)": "https://maps.google.com/?cid=12934273367801497878",
        "Website": "N/A",
        "Rating": null,
        "User Ratings Total": null,
        "Latitude": 6.0802424,
        "Longitude": 80.4759826,
        "Place ID": "ChIJh5ZFDuBD4ToRFomaaxnFf7M"
    },
    {
        "Name": "Ruhuna Hardware And Concreete Works",
        "Address": "katanwilla Road, Akuressa 81400, Sri Lanka",
        "Phone": "+94 77 400 0682",
        "Map Address (URL)": "https://maps.google.com/?cid=9875538777674700827",
        "Website": "http://www.matarabusiness.com/business_info.php?id=2522",
        "Rating": null,
        "User Ratings Total": null,
        "Latitude": 6.1126843,
        "Longitude": 80.45801809999999,
        "Place ID": "ChIJt5YZSEtD4ToRG1jlCDL2DIk"
    },
    {
        "Name": "Ramco Southern (Pvt.) Ltd.",
        "Address": "XG5H+PJG, Matara - Akuressa Hwy, Matara, Sri Lanka",
        "Phone": "+94 412 225 552",
        "Map Address (URL)": "https://maps.google.com/?cid=859996481074706611",
        "Website": "N/A",
        "Rating": 4.6,
        "User Ratings Total": 10,
        "Latitude": 5.9593237,
        "Longitude": 80.5290879,
        "Place ID": "ChIJhwTV2zs_4ToRsziLOj5S7ws"
    },
    {
        "Name": "Liyanapathirana Hardware",
        "Address": "4F2G+393, Akuressa 81000, Sri Lanka",
        "Phone": "+94 71 814 0349",
        "Map Address (URL)": "https://maps.google.com/?cid=10398932724185523973",
        "Website": "N/A",
        "Rating": null,
        "User Ratings Total": null,
        "Latitude": 6.1001458,
        "Longitude": 80.4759239,
        "Place ID": "ChIJ9yZaaghD4ToRBWdDfDduUJA"
    },
    {
        "Name": "Wickramasekara Hardware",
        "Address": "5FXH+W7P, Akuressa-Pasgoda Rd, අකුරැස්ස, Sri Lanka",
        "Phone": "N/A",
        "Map Address (URL)": "https://maps.google.com/?cid=16003574568032501175",
        "Website": "http://7.61.233.168/",
        "Rating": 2,
        "User Ratings Total": 1,
        "Latitude": 6.1998364,
        "Longitude": 80.4782013,
        "Place ID": "ChIJRTtTGaJd4ToRt30NcEceGN4"
    },
    {
        "Name": "Lal Hardware",
        "Address": "4G26+5CJ, Akuressa, Sri Lanka",
        "Phone": "N/A",
        "Map Address (URL)": "https://maps.google.com/?cid=4708367467019308668",
        "Website": "N/A",
        "Rating": null,
        "User Ratings Total": null,
        "Latitude": 6.1004587,
        "Longitude": 80.51102759999999,
        "Place ID": "ChIJKfwtUQBD4ToRfA6x50N7V0E"
    },
    {
        "Name": "Shaviro Hardware",
        "Address": "Matara - Akuressa Hwy, Sri Lanka",
        "Phone": "N/A",
        "Map Address (URL)": "https://maps.google.com/?cid=8929320344200577047",
        "Website": "N/A",
        "Rating": null,
        "User Ratings Total": null,
        "Latitude": 6.0808112,
        "Longitude": 80.48329489999999,
        "Place ID": "ChIJ85HTLyZD4ToRF4C-IYtR63s"
    },
    {
        "Name": "Madura Electronics",
        "Address": "4F74+FJ2, Akuressa 81400, Sri Lanka",
        "Phone": "+94 77 497 3757",
        "Map Address (URL)": "https://maps.google.com/?cid=10451059679075367857",
        "Website": "N/A",
        "Rating": 5,
        "User Ratings Total": 3,
        "Latitude": 6.1136456,
        "Longitude": 80.4565119,
        "Place ID": "ChIJmR9MMJ1D4ToRsfux8WefCZE"
    },
    {
        "Name": "Sisira stores",
        "Address": "Kirimetimulla Junction Bus Stop, 2G84+655, Matara - Akuressa Hwy, Palatuwa, Sri Lanka",
        "Phone": "+94 71 428 7776",
        "Map Address (URL)": "https://maps.google.com/?cid=8991272021667897391",
        "Website": "N/A",
        "Rating": 5,
        "User Ratings Total": 2,
        "Latitude": 6.0155037,
        "Longitude": 80.50548649999999,
        "Place ID": "ChIJUzfXWXpB4ToRL2BsEkRqx3w"
    },
    {
        "Name": "Samantha Hardware",
        "Address": "Senific, Akuressa - Ketanwila Rd, Sri Lanka",
        "Phone": "N/A",
        "Map Address (URL)": "https://maps.google.com/?cid=14050826095787563758",
        "Website": "N/A",
        "Rating": 1,
        "User Ratings Total": 1,
        "Latitude": 6.116612900000001,
        "Longitude": 80.44626720000001,
        "Place ID": "ChIJ486YPW1p4ToR7to0wOOP_sI"
    },
    {
        "Name": "Weeraketiya Hardware",
        "Address": "Akuressa Rd, Weligama 81700, Sri Lanka",
        "Phone": "+94 417 676 388",
        "Map Address (URL)": "https://maps.google.com/?cid=17481260195135455609",
        "Website": "https://weeraketiyahardware.blogspot.com/",
        "Rating": 4,
        "User Ratings Total": 29,
        "Latitude": 5.9788016,
        "Longitude": 80.4306286,
        "Place ID": "ChIJqwfcdzYV4ToReYE5HYfpmfI"
    },
    {
        "Name": "Janaka Hardware",
        "Address": "593V+F45, Akuressa, Sri Lanka",
        "Phone": "N/A",
        "Map Address (URL)": "https://maps.google.com/?cid=9524577287219218938",
        "Website": "N/A",
        "Rating": null,
        "User Ratings Total": null,
        "Latitude": 6.153626,
        "Longitude": 80.39286109999999,
        "Place ID": "ChIJ0Xcj4Mln4ToR-ol0UJQYLoQ"
    },
    {
        "Name": "Dilmina Hardware & Distributor Pvt Ltd.",
        "Address": "10-1 Akuressa Rd, Akuressa, Sri Lanka",
        "Phone": "+94 77 529 9040",
        "Map Address (URL)": "https://maps.google.com/?cid=5229504967089478481",
        "Website": "N/A",
        "Rating": null,
        "User Ratings Total": null,
        "Latitude": 6.0529374,
        "Longitude": 80.4966159,
        "Place ID": "ChIJSXQ7fp5B4ToRUVuCeg_vkkg"
    },
    {
        "Name": "Madushan Hardware",
        "Address": "9VP8+V5X, Pahala Kottaramulla, Sri Lanka",
        "Phone": "N/A",
        "Map Address (URL)": "https://maps.google.com/?cid=10282164044342091764",
        "Website": "N/A",
        "Rating": 4.3,
        "User Ratings Total": 4,
        "Latitude": 7.3872376,
        "Longitude": 79.8654734,
        "Place ID": "ChIJBXfwg6LD4joR9N9NmbiVsY4"
    },
    {
        "Name": "Darshana Hardware",
        "Address": "Ahangama, Sri Lanka",
        "Phone": "+94 77 004 4053",
        "Map Address (URL)": "https://maps.google.com/?cid=9545924283189671782",
        "Website": "N/A",
        "Rating": 2.9,
        "User Ratings Total": 10,
        "Latitude": 5.9714611,
        "Longitude": 80.365292,
        "Place ID": "ChIJM7LHDVgT4ToRZrdLII_veYQ"
    },
    {
        "Name": "Sahan Hardware",
        "Address": "Moragollagama road, Ehetuwewa 60716, Sri Lanka",
        "Phone": "+94 77 184 0367",
        "Map Address (URL)": "https://maps.google.com/?cid=10611871360399943457",
        "Website": "N/A",
        "Rating": null,
        "User Ratings Total": null,
        "Latitude": 7.937017099999998,
        "Longitude": 80.346325,
        "Place ID": "ChIJ3fSCGt7D_DoRIafHNsfwRJM"
    },
    {
        "Name": "MCM Hardware Gallegama",
        "Address": "F5QF+7GC, Unnamed Road, Horombawa, Sri Lanka",
        "Phone": "N/A",
        "Map Address (URL)": "https://maps.google.com/?cid=4128773424375863064",
        "Website": "N/A",
        "Rating": 5,
        "User Ratings Total": 1,
        "Latitude": 7.488196599999999,
        "Longitude": 80.1737564,
        "Place ID": "ChIJp6LEs9wn4zoRGBf_5Y1ZTDk"
    },
    {
        "Name": "Usara Hardware",
        "Address": "Kithalawa Deeyawala Rd, Sri Lanka",
        "Phone": "N/A",
        "Map Address (URL)": "https://maps.google.com/?cid=17761917400840685488",
        "Website": "N/A",
        "Rating": 4.3,
        "User Ratings Total": 3,
        "Latitude": 7.460927,
        "Longitude": 80.1112599,
        "Place ID": "ChIJh4T_Jisn4zoRsEfw9sQBf_Y"
    },
    {
        "Name": "UL HARDWARE",
        "Address": "F52F+726, Horombawa, Sri Lanka",
        "Phone": "+94 72 952 5914",
        "Map Address (URL)": "https://maps.google.com/?cid=14990596974214385555",
        "Website": "N/A",
        "Rating": 2,
        "User Ratings Total": 1,
        "Latitude": 7.450673800000001,
        "Longitude": 80.1725159,
        "Place ID": "ChIJrT8UAQAn4zoRkw8YQ4ZMCdA"
    },
    {
        "Name": "Sampath Hardware",
        "Address": "H627+QFM, Mahakeliya-Katupotha Rd, Katupotha, Sri Lanka",
        "Phone": "N/A",
        "Map Address (URL)": "https://maps.google.com/?cid=15325736202201413126",
        "Website": "N/A",
        "Rating": null,
        "User Ratings Total": null,
        "Latitude": 7.551955799999999,
        "Longitude": 80.2136664,
        "Place ID": "ChIJt_7Y7eYu4zoRBjaPbeDzr9Q"
    },
    {
        "Name": "Minikukula Hardware",
        "Address": "95VR+RWM, Sri Lanka",
        "Phone": "N/A",
        "Map Address (URL)": "https://maps.google.com/?cid=9680899561285279082",
        "Website": "N/A",
        "Rating": 2.7,
        "User Ratings Total": 3,
        "Latitude": 7.394594499999999,
        "Longitude": 80.19228439999999,
        "Place ID": "ChIJLynVwKUj4zoRat2kANx2WYY"
    },
    {
        "Name": "Serandib Hardware Centre",
        "Address": "No.21 Kuliyapitiya Road, Narammala 60100, Sri Lanka",
        "Phone": "+94 77 984 6837",
        "Map Address (URL)": "https://maps.google.com/?cid=9576024708823787548",
        "Website": "N/A",
        "Rating": 4.7,
        "User Ratings Total": 3,
        "Latitude": 7.4307889,
        "Longitude": 80.21402789999999,
        "Place ID": "ChIJu8iXBYwl4zoRHCjOmbzf5IQ"
    },
    {
        "Name": "Winners Lanka Hardware",
        "Address": "F4P7+C95, Sri Lanka",
        "Phone": "+94 77 013 7960",
        "Map Address (URL)": "https://maps.google.com/?cid=916056396788664683",
        "Website": "N/A",
        "Rating": null,
        "User Ratings Total": null,
        "Latitude": 7.486008600000001,
        "Longitude": 80.11348989999999,
        "Place ID": "ChIJXwsbLgAn4zoRawnQfHB8tgw"
    },
    {
        "Name": "Alawala Hardware",
        "Address": "Alawala Junction Bus Stop, 45CQ+3HF, Sri Lanka",
        "Phone": "N/A",
        "Map Address (URL)": "https://maps.google.com/?cid=13104206357732759324",
        "Website": "N/A",
        "Rating": null,
        "User Ratings Total": null,
        "Latitude": 7.1201801,
        "Longitude": 80.1889233,
        "Place ID": "ChIJeQwjxqIF4zoRHJcT2EB-27U"
    },
    {
        "Name": "Alawathugoda Hardware",
        "Address": "917 Matale Rd, Alawatugoda, Sri Lanka",
        "Phone": "N/A",
        "Map Address (URL)": "https://maps.google.com/?cid=14299634981419532974",
        "Website": "N/A",
        "Rating": 5,
        "User Ratings Total": 1,
        "Latitude": 7.4073223,
        "Longitude": 80.61038789999999,
        "Place ID": "ChIJka63wk5D4zoRrsJCvUCCcsY"
    },
    {
        "Name": "Dhanapala Hardware Stores",
        "Address": "47 Old Matale Rd, Alawatugoda, Sri Lanka",
        "Phone": "+94 662 244 755",
        "Map Address (URL)": "https://maps.google.com/?cid=7920182544134088782",
        "Website": "https://www.facebook.com/Dhanapalahardwarestores?mibextid=LQQJ4d",
        "Rating": 4.5,
        "User Ratings Total": 6,
        "Latitude": 7.409990199999999,
        "Longitude": 80.6090888,
        "Place ID": "ChIJ_1CRSXpD4zoRTqhcmw8k6m0"
    },
    {
        "Name": "Rathna Hardware",
        "Address": "821, Matale Rd, Alawatugoda, Sri Lanka",
        "Phone": "+94 77 199 1542",
        "Map Address (URL)": "https://maps.google.com/?cid=8183486377081234996",
        "Website": "N/A",
        "Rating": 5,
        "User Ratings Total": 1,
        "Latitude": 7.411199000000001,
        "Longitude": 80.60951440000001,
        "Place ID": "ChIJfavczmlD4zoRNOYsgoCVkXE"
    },
    {
        "Name": "Susil Hardware",
        "Address": "CJ46+M9J, Alawatugoda Rd, Matale, Sri Lanka",
        "Phone": "+94 77 354 2603",
        "Map Address (URL)": "https://maps.google.com/?cid=13754415865168610674",
        "Website": "N/A",
        "Rating": 4.3,
        "User Ratings Total": 3,
        "Latitude": 7.406700999999999,
        "Longitude": 80.6109,
        "Place ID": "ChIJz2vIXBJD4zoRckVf-FqA4b4"
    },
    {
        "Name": "Kandurata Hardware",
        "Address": "CJ27+QG6, Kandy, Sri Lanka",
        "Phone": "+94 812 302 709",
        "Map Address (URL)": "https://maps.google.com/?cid=5985507802446125052",
        "Website": "N/A",
        "Rating": 4.2,
        "User Ratings Total": 11,
        "Latitude": 7.401909700000001,
        "Longitude": 80.61376609999999,
        "Place ID": "ChIJdZD-Dj9D4zoR_FchPaLLEFM"
    },
    {
        "Name": "Ranawana Holdings",
        "Address": "631, Bangalawatta Arambepola, Alawatugoda 20140, Sri Lanka",
        "Phone": "+94 812 306 301",
        "Map Address (URL)": "https://maps.google.com/?cid=6233973497731870465",
        "Website": "N/A",
        "Rating": 4.7,
        "User Ratings Total": 3,
        "Latitude": 7.396258,
        "Longitude": 80.6155508,
        "Place ID": "ChIJ46iINDND4zoRAe-B_92Fg1Y"
    },
    {
        "Name": "E.H.F Hardware",
        "Address": "CHQ9+JVJ, Alawatugoda-Ankumbura-Keppetigala Rd, Ankumbura, Sri Lanka",
        "Phone": "+94 662 240 464",
        "Map Address (URL)": "https://maps.google.com/?cid=3693719083687377685",
        "Website": "N/A",
        "Rating": 3.1,
        "User Ratings Total": 9,
        "Latitude": 7.439097099999999,
        "Longitude": 80.5696297,
        "Place ID": "ChIJtWeAbGxE4zoRFXtEu--5QjM"
    },
    {
        "Name": "Shiva Modern Steel",
        "Address": "941/C Matale Rd, Alawatugoda 20140, Sri Lanka",
        "Phone": "+94 77 779 8227",
        "Map Address (URL)": "https://maps.google.com/?cid=4111858252232475387",
        "Website": "N/A",
        "Rating": null,
        "User Ratings Total": null,
        "Latitude": 7.4112958,
        "Longitude": 80.6084727,
        "Place ID": "ChIJ_f1_vmlD4zoR-0ITe0tBEDk"
    },
    {
        "Name": "IRS Hardware",
        "Address": "No:33 Wariyagoda,Alawwa, Sri Lanka",
        "Phone": "+94 372 278 509",
        "Map Address (URL)": "https://maps.google.com/?cid=8422023696358555457",
        "Website": "N/A",
        "Rating": 3.9,
        "User Ratings Total": 19,
        "Latitude": 7.292939800000001,
        "Longitude": 80.24079789999999,
        "Place ID": "ChIJTUU9SlIY4zoRQb9fF-4J4XQ"
    },
    {
        "Name": "Isuru Sri Hardware",
        "Address": "Yapanawaththa Bawilgamuwa, Pothuhera 60330, Sri Lanka",
        "Phone": "+94 71 336 3300",
        "Map Address (URL)": "https://maps.google.com/?cid=13706898458570056046",
        "Website": "N/A",
        "Rating": 4.6,
        "User Ratings Total": 5,
        "Latitude": 7.4058392,
        "Longitude": 80.32460789999999,
        "Place ID": "ChIJJ3U8eK894zoRbuFqm4avOL4"
    },
    {
        "Name": "TOOL CIRCLE",
        "Address": "4TH LANE, THATAKA RD, Kegalle 71000, Sri Lanka",
        "Phone": "+94 78 624 1029",
        "Map Address (URL)": "https://maps.google.com/?cid=6716596792210654350",
        "Website": "https://web.facebook.com/groups/326286550406427/",
        "Rating": 4.8,
        "User Ratings Total": 15,
        "Latitude": 7.2611615,
        "Longitude": 80.3433403,
        "Place ID": "ChIJTRY4UrYX4zoRjoQ-SzIlNl0"
    },
    {
        "Name": "New City Trade Center",
        "Address": "Kurunagala, Kegalle - Rambukkana Rd, Rambukkana 71100, Sri Lanka",
        "Phone": "+94 71 530 3146",
        "Map Address (URL)": "https://maps.google.com/?cid=7893203106673411067",
        "Website": "N/A",
        "Rating": 5,
        "User Ratings Total": 1,
        "Latitude": 7.279227199999999,
        "Longitude": 80.3833803,
        "Place ID": "ChIJ5euvmhwV4zoR-0NH0WdKim0"
    },
    {
        "Name": "Rajarata Hardware",
        "Address": "Gansabha Junction, Hettimulla, Sri Lanka",
        "Phone": "+94 352 226 306",
        "Map Address (URL)": "https://maps.google.com/?cid=11636447624596303011",
        "Website": "N/A",
        "Rating": 4.2,
        "User Ratings Total": 16,
        "Latitude": 7.2114623,
        "Longitude": 80.36117569999999,
        "Place ID": "ChIJ-ciUpn4R4zoRoyyAR3b3fKE"
    },
    {
        "Name": "Popular Hardware",
        "Address": "No.33 A Yatiyanthota Rd, Avissawella, Sri Lanka",
        "Phone": "+94 362 230 470",
        "Map Address (URL)": "https://maps.google.com/?cid=14109422111011823972",
        "Website": "N/A",
        "Rating": 4.5,
        "User Ratings Total": 6,
        "Latitude": 6.9526372,
        "Longitude": 80.21316329999999,
        "Place ID": "ChIJkaNRPI2p4zoRZOHmsKe8zsM"
    },
    {
        "Name": "Wasantha Hardware",
        "Address": "Hettimulla-Diwala-Ussapitiya Rd, Deewela 71000, Sri Lanka",
        "Phone": "+94 352 050 911",
        "Map Address (URL)": "https://maps.google.com/?cid=16579722262099106595",
        "Website": "N/A",
        "Rating": 4.2,
        "User Ratings Total": 14,
        "Latitude": 7.2199865,
        "Longitude": 80.39082309999999,
        "Place ID": "ChIJKwTNltUT4zoRI5sN440BF-Y"
    },
    {
        "Name": "Lalana Hardware",
        "Address": "66J8+MW9, Kegalle, Sri Lanka",
        "Phone": "+94 352 268 406",
        "Map Address (URL)": "https://maps.google.com/?cid=4563629552958345351",
        "Website": "N/A",
        "Rating": 3.9,
        "User Ratings Total": 22,
        "Latitude": 7.231658599999999,
        "Longitude": 80.2173521,
        "Place ID": "ChIJg-PGRcQb4zoRh5CONuZEVT8"
    },
    {
        "Name": "Kegallu Hardware",
        "Address": "23 Pannala-Kuliyapitiya Rd, Pannala, Sri Lanka",
        "Phone": "+94 372 246 236",
        "Map Address (URL)": "https://maps.google.com/?cid=9266484227664185671",
        "Website": "N/A",
        "Rating": 4.3,
        "User Ratings Total": 3,
        "Latitude": 7.3288774,
        "Longitude": 80.0244163,
        "Place ID": "ChIJKc1vxh3e4joRRwmvIk8qmYA"
    },
    {
        "Name": "Sinson Hardware",
        "Address": "No.10, 12 Old Galle Rd, Panadura 12550, Sri Lanka",
        "Phone": "+94 382 237 211",
        "Map Address (URL)": "https://maps.google.com/?cid=7336700489907703586",
        "Website": "N/A",
        "Rating": 4.3,
        "User Ratings Total": 13,
        "Latitude": 6.749252599999999,
        "Longitude": 79.9005229,
        "Place ID": "ChIJxwAkDutF4joRIg9iXDky0WU"
    },